Time,header.seq,header.stamp.secs,header.stamp.nsecs,header.frame_id,child_frame_id,pose.pose.position.x,pose.pose.position.y,pose.pose.position.z,pose.pose.orientation.x,pose.pose.orientation.y,pose.pose.orientation.z,pose.pose.orientation.w,pose.covariance,twist.twist.linear.x,twist.twist.linear.y,twist.twist.linear.z,twist.twist.angular.x,twist.twist.angular.y,twist.twist.angular.z,twist.covariance
1717334905.4855082,3870,78,0,odom,base_link,5.223055975818724,3.243810812433715,0.0009574347819644831,0.00010206207133689018,-6.7012608793944105e-06,0.7934080289330482,0.6086901421601982,"(18.742259504193967, -23.777864276617336, -5.524862667584016e-10, 3.979658276097468e-22, 2.423418821164528e-19, -5.898095269946374, -23.777864276616313, 41.89476420348133, -7.214569842693135e-09, 9.755487918517911e-23, -9.037816520714763e-19, 9.397754331969157, -5.52486266758419e-10, -7.214569842693077e-09, 4.645685295656742, 5.879462765122582e-20, 6.221754560819136e-15, 1.54127433887964e-13, 3.979658276097464e-22, 9.755487918517905e-23, 5.879462765122581e-20, 2.6019537157499313e-07, 3.6178100883645006e-23, 3.783008711766824e-12, 2.423418821164529e-19, -9.037816520714765e-19, 6.221754560819137e-15, 3.617810094072959e-23, 2.6019537157548636e-07, -5.327224498422273e-16, -5.898095269946489, 9.39775433196933, 1.541274338879658e-13, 3.783008711766823e-12, -5.327224498422274e-16, 4.644104456771001)",-6.355651115131073e-06,0.0,0.0,-0.0024244280533098394,-0.0013877943689619308,-0.0005743711317591038,"(0.0008942727718040334, 0.0, 0.0, 0.0, 0.0, 0.0, 0.0, 0.0008942727718040334, 0.0, 0.0, 0.0, 0.0, 0.0, 0.0, 0.0012010436775317553, 0.0, 0.0, 0.0, 0.0, 0.0, 0.0, 2.2474462435201218e-05, 4.219930408191474e-19, 3.3694007355062516e-15, 0.0, 0.0, 0.0, 4.2199304081915494e-19, 2.2474462435201597e-05, 2.492988371394502e-15, 0.0, 0.0, 0.0, 3.369400735506251e-15, 2.4929883713945016e-15, 2.3605215918665182e-05)"
1717334905.5060833,3871,78,20000000,odom,base_link,5.223056008706091,3.2438106897839707,0.0009574347591067801,0.00010210868000870426,-6.9063293234827275e-06,0.793407509316202,0.608690819453342,"(18.74325847953575, -23.77786331813236, -5.50588581523031e-10, 9.440358396372751e-23, 2.8456488335516497e-19, -5.898094700424629, -23.777863318131335, 41.89576524337794, -7.216671858374243e-09, 3.507519409944429e-23, -1.0612458263660896e-18, 9.397754484680423, -5.505885815230484e-10, -7.216671858374187e-09, 4.646885730659551, -5.325690560198523e-20, 6.206324281345108e-15, 1.54127468832273e-13, 9.440358396372753e-23, 3.507519409944429e-23, -5.325690560198527e-20, 2.601953715756942e-07, 2.2988230014557668e-23, -1.3568664614388557e-12, 2.84564883355165e-19, -1.0612458263660896e-18, 6.20632428134511e-15, 2.2988229957381494e-23, 2.6019537157548594e-07, -2.817636438240052e-16, -5.898094700424743, 9.397754484680595, 1.5412746883227473e-13, -1.356866461438855e-12, -2.817636438240053e-16, 4.645304483558322)",-6.339877032137093e-06,0.0,0.0,-0.002789161741636841,0.01257573947750179,0.001408576082206836,"(0.000894272777675864, 0.0, 0.0, 0.0, 0.0, 0.0, 0.0, 0.000894272777675864, 0.0, 0.0, 0.0, 0.0, 0.0, 0.0, 0.0012010436835819776, 0.0, 0.0, 0.0, 0.0, 0.0, 0.0, 2.24744624352013e-05, 4.468058684527712e-19, 3.924477242811608e-15, 0.0, 0.0, 0.0, 4.468058684527573e-19, 2.2474462435201533e-05, 2.274149340636428e-15, 0.0, 0.0, 0.0, 3.924477242811607e-15, 2.274149340636428e-15, 2.3605215918665056e-05)"
1717334905.5264497,3872,78,40000000,odom,base_link,5.223056041512347,3.243810567439001,0.0009574347381947775,0.00010208151823444176,-6.937524067077249e-06,0.7934159279388104,0.6086798459159222,"(18.744257458473246, -23.77786236203423, -5.489885609092436e-10, 5.595998618571128e-22, 1.7256963431603252e-19, -5.898094132171727, -23.77786236203321, 41.89676628175245, -7.217468178749042e-09, 1.3552359977010305e-22, -6.435519901864196e-19, 9.397754637054947, -5.489885609092607e-10, -7.217468178748989e-09, 4.64808616566233, 1.3040531509294056e-19, 6.1909036758967114e-15, 1.5412746196805788e-13, 5.595998618571124e-22, 1.3552359977010297e-22, 1.3040531509294054e-19, 2.601953715743498e-07, 3.661952924338721e-23, 1.2291498103946395e-11, 1.7256963431603252e-19, -6.435519901864197e-19, 6.190903675896711e-15, 3.661952916034224e-23, 2.601953715754965e-07, -7.751148195231539e-16, -5.898094132171841, 9.397754637055119, 1.5412746196805963e-13, 1.22914981039464e-11, -7.751148195231541e-16, 4.646504510349608)",-6.32411275149344e-06,0.0,0.0,0.0018774729813185074,0.00485229849372258,0.0013142232755328949,"(0.0008942727834061506, 0.0, 0.0, 0.0, 0.0, 0.0, 0.0, 0.0008942727834061506, 0.0, 0.0, 0.0, 0.0, 0.0, 0.0, 0.0012010436894863297, 0.0, 0.0, 0.0, 0.0, 0.0, 0.0, 2.2474462435202566e-05, 2.8575345999180117e-19, 2.483466611259839e-15, 0.0, 0.0, 0.0, 2.8575345999177907e-19, 2.2474462435202973e-05, 2.2290359954319072e-15, 0.0, 0.0, 0.0, 2.483466611259839e-15, 2.2290359954319072e-15, 2.3605215918666317e-05)"
1717334905.5467505,3873,78,60000000,odom,base_link,5.223056074240012,3.2438104453992787,0.0009574347161837444,0.00010214460473011574,-6.952257314589236e-06,0.7934167812614659,0.6086787335950232,"(18.74525644101254, -23.77786140834363, -5.467161047138678e-10, 8.750337423078381e-22, 2.338100970122887e-19, -5.898093565190806, -23.777861408342616, 41.897767318655255, -7.219161459475894e-09, 2.162942833637962e-22, -8.718540844706132e-19, 9.39775478910499, -5.467161047138849e-10, -7.21916145947584e-09, 4.649286600665077, 1.2139192564617992e-19, 6.175492572105068e-15, 1.5412745609135024e-13, 8.75033742307838e-22, 2.162942833637962e-22, 1.2139192564617997e-19, 2.6019537157489365e-07, 4.742485617972097e-23, 4.74691683651088e-12, 2.338100970122888e-19, -8.718540844706134e-19, 6.175492572105069e-15, 4.7424856251707553e-23, 2.601953715754948e-07, -7.512911975681109e-16, -5.898093565190919, 9.397754789105162, 1.5412745609135199e-13, 4.746916836510878e-12, -7.512911975681111e-16, 4.64770453713748)",-6.30835827950914e-06,0.0,0.0,0.00271591965507473,0.010115286954825713,-0.003452897750897036,"(0.0008942727889956079, 0.0, 0.0, 0.0, 0.0, 0.0, 0.0, 0.0008942727889956079, 0.0, 0.0, 0.0, 0.0, 0.0, 0.0, 0.0012010436952477918, 0.0, 0.0, 0.0, 0.0, 0.0, 0.0, 2.24744624352012e-05, 4.444302912395181e-19, 3.278006826899617e-15, 0.0, 0.0, 0.0, 4.444302912395242e-19, 2.247446243520165e-05, 2.711938558911311e-15, 0.0, 0.0, 0.0, 3.278006826899616e-15, 2.7119385589113107e-15, 2.3605215918665158e-05)"
1717334905.566202,3874,78,80000000,odom,base_link,5.223056106884554,3.2438103236633897,0.0009574346994673833,3.842147258539728e-05,7.617079194881121e-05,0.7933958417167805,0.608706030090324,"(18.74625542713507, -23.777860457015553, -5.446822109192131e-10, 1.6820087057260235e-18, 4.4174696754815817e-16, -5.898092999475277, -23.777860457014544, 41.89876835399011, -7.2202948324879396e-09, 5.42109813027757e-19, -1.647345603863233e-15, 9.39775494080657, -5.446822109192304e-10, -7.220294832487888e-09, 4.650487035667797, -7.328878651559685e-16, 1.4211464091719197e-11, 1.5412754669193224e-13, 1.6820087057260227e-18, 5.421098130277569e-19, -7.328878651559684e-16, 0.0006002804321822838, -7.512169044595068e-17, 2.281382898111217e-08, 4.4174696754815817e-16, -1.6473456038632327e-15, 1.4211464091719197e-11, -7.512169013908655e-17, 0.0006002804376572184, 6.761763815203231e-13, -5.898092999475389, 9.397754940806742, 1.5412754669193398e-13, 2.2813828981112175e-08, 6.761763815203239e-13, 4.64890457357914)",-6.292613505883088e-06,0.0,0.0,0.002715919655075106,0.010115286954826023,-0.003438727283654731,"(0.0008942727944466985, 0.0, 0.0, 0.0, 0.0, 0.0, 0.0, 0.0008942727944466985, 0.0, 0.0, 0.0, 0.0, 0.0, 0.0, 0.001201043700869972, 0.0, 0.0, 0.0, 0.0, 0.0, 0.0, 0.0002224744624351614, 4.444302909444089e-19, 3.264556287406842e-15, 0.0, 0.0, 0.0, 4.44430290944415e-19, 0.00022247446243516184, 2.700810749051587e-15, 0.0, 0.0, 0.0, 3.264556287406841e-15, 2.7008107490515865e-15, 0.0004230980306300796)"
1717334905.5877504,3875,78,100000000,odom,base_link,5.223056139449973,3.2438102022322024,0.0009574346738446855,0.00010223708180733797,-7.037303113513693e-06,0.7934485798809742,0.6086372816242205,"(18.747254416850048, -23.777859508079022, -5.427997916266457e-10, 7.884420073375802e-22, 2.2849769426735638e-19, -5.898092435029508, -23.777859508078006, 41.899769387826055, -7.22199006479477e-09, 1.2681614452130948e-22, -8.520096162819722e-19, 9.397755092176554, -5.427997916266631e-10, -7.2219900647947186e-09, 4.651687470670488, 5.693451385318465e-19, 6.1446989711584336e-15, 1.5412743075961526e-13, 7.884420073375799e-22, 1.2681614452130948e-22, 5.693451385318467e-19, 2.6019537157507195e-07, 1.1112258120876612e-22, 5.25943864461034e-12, 2.284976942673563e-19, -8.520096162819719e-19, 6.1446989711584336e-15, 1.1112258168139065e-22, 2.6019537157572623e-07, -1.7623414508689483e-15, -5.8980924350296196, 9.397755092176727, 1.5412743075961693e-13, 5.259438644610337e-12, -1.7623414508689491e-15, 4.650104590715358)",-6.276878534318365e-06,0.0,0.0,0.001201753606870674,0.0032906487668483636,0.006643215969666212,"(0.0008942727997622168, 0.0, 0.0, 0.0, 0.0, 0.0, 0.0, 0.0008942727997622168, 0.0, 0.0, 0.0, 0.0, 0.0, 0.0, 0.0012010437063561413, 0.0, 0.0, 0.0, 0.0, 0.0, 0.0, 2.247446243520123e-05, 4.0781181597778143e-19, 3.2250099166630804e-15, 0.0, 0.0, 0.0, 4.0781181597786044e-19, 2.2474462435201634e-05, 2.5155554820372256e-15, 0.0, 0.0, 0.0, 3.2250099166630804e-15, 2.515555482037224e-15, 2.3605215918665212e-05)"
1717334905.6072674,3876,78,120000000,odom,base_link,5.22305617194836,3.2438100811087605,0.0009574346528816042,0.00010222485071496679,-7.120950576305224e-06,0.793480081221021,0.6085962127756415,"(18.748253410198448, -23.77785856164752, -5.407254527833046e-10, 4.392803441539604e-22, 2.4519387169076515e-19, -5.898091871870389, -23.777858561646514, 41.90077042042067, -7.223676335777693e-09, 2.0575577125963282e-23, -9.138062539276594e-19, 9.397755243278498, -5.407254527833221e-10, -7.2236763357776395e-09, 4.652887905673151, 6.08753125975376e-19, 6.1293164831808416e-15, 1.5412729233411092e-13, 4.392803441539604e-22, 2.057557712596328e-23, 6.087531259753757e-19, 2.6019537157533173e-07, 1.1859700709136797e-22, 3.2165892462083928e-12, 2.451938716907652e-19, -9.138062539276592e-19, 6.129316483180841e-15, 1.185970072094397e-22, 2.601953715757621e-07, -1.7630542739229372e-15, -5.8980918718705, 9.39775524327867, 1.5412729233411264e-13, 3.216589246208393e-12, -1.7630542739229364e-15, 4.651304617502906)",-6.261153303203903e-06,0.0,0.0,-0.002087978314676405,-0.00193785477878148,0.0007381334911467363,"(0.0008942728049453248, 0.0, 0.0, 0.0, 0.0, 0.0, 0.0, 0.0008942728049453248, 0.0, 0.0, 0.0, 0.0, 0.0, 0.0, 0.001201043711709667, 0.0, 0.0, 0.0, 0.0, 0.0, 0.0, 2.247446243520272e-05, 4.565475816029094e-19, 3.452831856937706e-15, 0.0, 0.0, 0.0, 4.565475816029353e-19, 2.2474462435203125e-05, 2.643719132524132e-15, 0.0, 0.0, 0.0, 3.4528318569377057e-15, 2.643719132524132e-15, 2.3605215918666002e-05)"
1717334905.6277168,3877,78,140000000,odom,base_link,5.223056204375597,3.243809960291758,0.0009574346306749988,0.00010214937169707004,-7.091308817077715e-06,0.7934876500467001,0.608586344521946,"(18.749252407160203, -23.777857617672023, -5.38846102736478e-10, 4.0356062373745197e-23, 2.861819018348062e-19, -5.898091309990739, -23.777857617671017, 41.901771451668694, -7.22575326020574e-09, -1.8146507363820282e-24, -1.0662388084330755e-18, 9.397755394086184, -5.388461027364956e-10, -7.225753260205687e-09, 4.654088340675786, 6.768221756862929e-20, 6.1139435133950714e-15, 1.5412729022908308e-13, 4.035606237374518e-23, -1.814650736382034e-24, 6.768221756862926e-20, 2.6019537157578394e-07, 3.9148550768508885e-23, -1.894990516065833e-12, 2.861819018348061e-19, -1.0662388084330753e-18, 6.11394351339507e-15, 3.914855071119009e-23, 2.6019537157548726e-07, -4.791566094600212e-16, -5.89809130999085, 9.397755394086357, 1.5412729022908474e-13, -1.894990516065834e-12, -4.791566094600218e-16, 4.652504644290273)",-6.2454378044356094e-06,0.0,0.0,-0.0025605582022507197,0.007526920875741085,0.0028022461740974326,"(0.0008942728099989238, 0.0, 0.0, 0.0, 0.0, 0.0, 0.0, 0.0008942728099989238, 0.0, 0.0, 0.0, 0.0, 0.0, 0.0, 0.0012010437169334592, 0.0, 0.0, 0.0, 0.0, 0.0, 0.0, 2.2474462435201326e-05, 4.598969041993493e-19, 3.999436854556912e-15, 0.0, 0.0, 0.0, 4.598969041993447e-19, 2.2474462435201553e-05, 2.2991571430430477e-15, 0.0, 0.0, 0.0, 3.999436854556909e-15, 2.2991571430430473e-15, 2.360521591866503e-05)"
1717334905.6480863,3878,78,160000000,odom,base_link,5.2230562367251405,3.243809839779235,0.0009574346095639711,0.00010207092722836684,-7.09777310589809e-06,0.7935035767449358,0.6085655784088853,"(18.75025140771432, -23.77785667610111, -5.371628804587653e-10, 2.6808974765604976e-22, 2.105260777031334e-19, -5.898090749383006, -23.7778566761001, 41.902772481459635, -7.226871906929446e-09, 3.6739762214608235e-23, -7.842551375215105e-19, 9.397755544572084, -5.371628804587825e-10, -7.226871906929391e-09, 4.655288775678393, 2.554770542401758e-19, 6.0985801568620665e-15, 1.5412724893629917e-13, 2.6808974765604967e-22, 3.6739762214608193e-23, 2.554770542401758e-19, 2.6019537157468417e-07, 6.081039166849539e-23, 7.355390023807611e-12, 2.1052607770313339e-19, -7.842551375215108e-19, 6.098580156862067e-15, 6.081039134411453e-23, 2.601953715755334e-07, -1.0423789733890082e-15, -5.898090749383116, 9.397755544572256, 1.541272489363008e-13, 7.355390023807614e-12, -1.0423789733890082e-15, 4.653704671078982)",-6.229732079350022e-06,0.0,0.0,0.0032628804330993837,0.005266529951829171,0.0020735794533606224,"(0.000894272814926384, 0.0, 0.0, 0.0, 0.0, 0.0, 0.0, 0.000894272814926384, 0.0, 0.0, 0.0, 0.0, 0.0, 0.0, 0.0012010437220309092, 0.0, 0.0, 0.0, 0.0, 0.0, 0.0, 2.2474462435201163e-05, 3.4472642171364223e-19, 3.0153942600888576e-15, 0.0, 0.0, 0.0, 3.4472642171357136e-19, 2.2474462435201536e-05, 2.2470226832163795e-15, 0.0, 0.0, 0.0, 3.0153942600888564e-15, 2.247022683216379e-15, 2.3605215918665317e-05)"
1717334905.6671922,3879,78,180000000,odom,base_link,5.223056268999227,3.243809719571595,0.0009574345883563628,0.0001020060859412121,-7.190350620696204e-06,0.7935148476950986,0.6085508820390304,"(18.751250411864984, -23.77785573695037, -5.348589634945564e-10, 6.295805158932763e-22, 2.2762772829878464e-19, -5.898090190049582, -23.777855736949356, 41.90377350983246, -7.228303536555492e-09, 1.4084520185450147e-22, -8.478146985496441e-19, 9.397755694745666, -5.348589634945735e-10, -7.2283035365554375e-09, 4.6564892106809745, 1.8866936724005952e-19, 6.083226239454535e-15, 1.5412722850590636e-13, 6.29580515893276e-22, 1.408452018545014e-22, 1.8866936724005956e-19, 2.60195371574867e-07, 5.910449777651778e-23, 5.149634119335739e-12, 2.2762772829878454e-19, -8.478146985496441e-19, 6.0832262394545326e-15, 5.910449757512734e-23, 2.60195371575511e-07, -9.497065492601465e-16, -5.898090190049692, 9.397755694745838, 1.5412722850590795e-13, 5.149634119335736e-12, -9.49706549260147e-16, 4.654904697866959)",-6.214036057851868e-06,0.0,0.0,-0.004925375481215062,0.004868730367768531,0.0011904940930728184,"(0.0008942728197308743, 0.0, 0.0, 0.0, 0.0, 0.0, 0.0, 0.0008942728197308743, 0.0, 0.0, 0.0, 0.0, 0.0, 0.0, 0.0012010437270051203, 0.0, 0.0, 0.0, 0.0, 0.0, 0.0, 2.2474462435202637e-05, 4.61088528558615e-19, 3.242260423746841e-15, 0.0, 0.0, 0.0, 4.61088528558586e-19, 2.2474462435203125e-05, 2.849570195585966e-15, 0.0, 0.0, 0.0, 3.2422604237468407e-15, 2.849570195585967e-15, 2.3605215918666012e-05)"
1717334905.6876843,3880,78,200000000,odom,base_link,5.2230563011963795,3.243809599668238,0.0009574345674913298,0.00010177824002483987,-7.287301393778478e-06,0.7935304915679205,0.6085304828355433,"(18.752249419603874, -23.77785480020206, -5.33385268438563e-10, 4.902946511679115e-22, 2.3024089278049774e-19, -5.898089631987907, -23.777854800201034, 41.90477453675183, -7.22999744787523e-09, 1.1528401935554042e-22, -8.574059653501377e-19, 9.397755844597983, -5.333852684385799e-10, -7.2299974478751766e-09, 4.657689645683527, 1.0806835495246869e-19, 6.067881851822713e-15, 1.541272158993963e-13, 4.902946511679114e-22, 1.1528401935554049e-22, 1.080683549524687e-19, 2.601953715748891e-07, 3.741088122779153e-23, 4.759949585642452e-12, 2.302408927804977e-19, -8.57405965350138e-19, 6.067881851822713e-15, 3.741088127282249e-23, 2.6019537157549277e-07, -5.55587187172685e-16, -5.898089631988017, 9.397755844598155, 1.541272158993979e-13, 4.759949585642452e-12, -5.55587187172685e-16, 4.656104724654833)",-6.198349772981247e-06,0.0,0.0,-0.005940612684539576,0.0012259131948722385,0.006816858555776467,"(0.0008942728244151869, 0.0, 0.0, 0.0, 0.0, 0.0, 0.0, 0.0008942728244151869, 0.0, 0.0, 0.0, 0.0, 0.0, 0.0, 0.001201043731858774, 0.0, 0.0, 0.0, 0.0, 0.0, 0.0, 2.24744624352012e-05, 3.3445345595021376e-19, 3.2851399632665357e-15, 0.0, 0.0, 0.0, 3.3445345595021694e-19, 2.247446243520149e-05, 1.9968633916507783e-15, 0.0, 0.0, 0.0, 3.2851399632665365e-15, 1.996863391650778e-15, 2.3605215918665297e-05)"
1717334905.7080286,3881,78,220000000,odom,base_link,5.2230563333204465,3.2438094800699973,0.0009574345465782761,0.0001016635376611749,-7.3217193664295565e-06,0.7935700395090206,0.6084789084303324,"(18.753248430943373, -23.777853865893537, -5.317103012504896e-10, 3.047257986032222e-22, 2.5792241087184344e-19, -5.8980890752036075, -23.777853865892506, 41.90577556230531, -7.231924418075675e-09, -2.302746832730285e-23, -9.601986653357327e-19, 9.397755994150558, -5.317103012505067e-10, -7.231924418075624e-09, 4.65889008068605, 6.166115503014732e-19, 6.052546927194111e-15, 1.5412705183699546e-13, 3.047257986032221e-22, -2.3027468327302866e-23, 6.166115503014732e-19, 2.6019537157560617e-07, 1.0880050437440024e-22, 1.1981124751349446e-12, 2.579224108718435e-19, -9.601986653357327e-19, 6.0525469271941116e-15, 1.0880050409857528e-22, 2.6019537157577663e-07, -1.5173601330216266e-15, -5.898089075203718, 9.39775599415073, 1.5412705183699702e-13, 1.1981124751349448e-12, -1.5173601330216264e-15, 4.657304751442143)",-6.182673195880977e-06,0.0,0.0,-0.00421777362155951,-0.0009053519676550754,0.00559210537891269,"(0.0008942728289825235, 0.0, 0.0, 0.0, 0.0, 0.0, 0.0, 0.0008942728289825235, 0.0, 0.0, 0.0, 0.0, 0.0, 0.0, 0.0012010437365950408, 0.0, 0.0, 0.0, 0.0, 0.0, 0.0, 2.247446243520131e-05, 3.4795287925919445e-19, 3.658742820264812e-15, 0.0, 0.0, 0.0, 3.4795287925909e-19, 2.2474462435201512e-05, 1.8768174763967406e-15, 0.0, 0.0, 0.0, 3.658742820264811e-15, 1.876817476396741e-15, 2.360521591866521e-05)"
1717334905.7275972,3882,78,240000000,odom,base_link,5.223056365378051,3.2438093607784513,0.0009574345246329074,0.00010178573363867772,-7.438691910408429e-06,0.7935993641182536,0.6084406617373908,"(18.754247445901132, -23.777852934076144, -5.298047461149389e-10, 8.500594051867611e-24, 2.738689470679289e-19, -5.898088519704389, -23.777852934075128, 41.90677658661167, -7.233838988874508e-09, -8.906739629583208e-23, -1.019070420145297e-18, 9.397756143432646, -5.298047461149557e-10, -7.233838988874457e-09, 4.660090515688549, 5.047595884575759e-19, 6.0372215314372e-15, 1.541269126904893e-13, 8.500594051867613e-24, -8.906739629583209e-23, 5.04759588457576e-19, 2.6019537157581517e-07, 9.282836785021184e-23, -8.868995186256285e-13, 2.73868947067929e-19, -1.0190704201452969e-18, 6.037221531437199e-15, 9.282836821355414e-23, 2.6019537157568086e-07, -1.225745286620507e-15, -5.8980885197044985, 9.39775614343282, 1.541269126904909e-13, -8.868995186256284e-13, -1.2257452866205064e-15, 4.658504778229435)",-6.167006334825271e-06,0.0,0.0,0.0008352670751768917,0.009505241911922568,0.002503361217026253,"(0.0008942728334357633, 0.0, 0.0, 0.0, 0.0, 0.0, 0.0, 0.0008942728334357633, 0.0, 0.0, 0.0, 0.0, 0.0, 0.0, 0.001201043741216705, 0.0, 0.0, 0.0, 0.0, 0.0, 0.0, 2.247446243520133e-05, 3.9981021737981833e-19, 3.879410947867437e-15, 0.0, 0.0, 0.0, 3.9981021737992007e-19, 2.2474462435201523e-05, 2.0506882588978415e-15, 0.0, 0.0, 0.0, 3.879410947867436e-15, 2.0506882588978403e-15, 2.360521591866511e-05)"
1717334905.747106,3883,78,260000000,odom,base_link,5.223056397364617,3.24380924179217,0.0009574345042941753,0.0001017527996843565,-7.523725295054541e-06,0.7936139346917043,0.6084216566271392,"(18.755246464459404, -23.777852004707142, -5.277968863858192e-10, 4.157632081038446e-22, 1.9249705884841774e-19, -5.898087965483977, -23.77785200470613, 41.90777760957974, -7.234741839676634e-09, 8.299086475266843e-23, -7.160614336431098e-19, 9.397756292421487, -5.277968863858361e-10, -7.2347418396765845e-09, 4.661290950691022, 2.2558929989770475e-19, 6.021905724578173e-15, 1.5412688663126236e-13, 4.1576320810384474e-22, 8.299086475266845e-23, 2.255892998977048e-19, 2.6019537157453186e-07, 5.835406170188439e-23, 9.289827909059819e-12, 1.9249705884841776e-19, -7.160614336431095e-19, 6.021905724578173e-15, 5.83540611806915e-23, 2.601953715755234e-07, -1.0986799825698195e-15, -5.898087965484086, 9.397756292421661, 1.5412688663126385e-13, 9.289827909059817e-12, -1.09867998256982e-15, 4.659704805019001)",-6.151349216649831e-06,0.0,0.0,0.0029368038223690895,0.0015309552524523672,0.0020833736043427867,"(0.0008942728377778384, 0.0, 0.0, 0.0, 0.0, 0.0, 0.0, 0.0008942728377778384, 0.0, 0.0, 0.0, 0.0, 0.0, 0.0, 0.0012010437457266334, 0.0, 0.0, 0.0, 0.0, 0.0, 0.0, 2.2474462435202593e-05, 3.6491251473237635e-19, 2.80613829524172e-15, 0.0, 0.0, 0.0, 3.6491251473226995e-19, 2.2474462435203057e-05, 2.5759070693503405e-15, 0.0, 0.0, 0.0, 2.8061382952417186e-15, 2.5759070693503405e-15, 2.360521591866618e-05)"
1717334905.7690434,3884,78,280000000,odom,base_link,5.223056429275137,3.2438091231096093,0.0009574344835883822,0.0001017216206822472,-7.450219310725889e-06,0.7936191947861712,0.6084147954020805,"(18.756245486601365, -23.777851077746146, -5.255424141424787e-10, 5.319521078455131e-22, 2.542130273926308e-19, -5.898087412536451, -23.777851077745133, 41.908778631123596, -7.236599944306573e-09, 1.1145208628014056e-22, -9.45457560362786e-19, 9.397756441095607, -5.255424141424959e-10, -7.236599944306523e-09, 4.662491385693467, 1.871164122202756e-19, 6.006599282453676e-15, 1.5412686017029332e-13, 5.319521078455129e-22, 1.114520862801406e-22, 1.8711641222027556e-19, 2.6019537157529986e-07, 6.06719789540133e-23, 1.498567227258452e-12, 2.5421302739263075e-19, -9.454575603627864e-19, 6.0065992824536765e-15, 6.067197916856528e-23, 2.6019537157551125e-07, -8.537455687502731e-16, -5.89808741253656, 9.397756441095781, 1.5412686017029488e-13, 1.4985672272584524e-12, -8.537455687502732e-16, 4.660904831806333)",-6.135701764013807e-06,0.0,0.0,0.0010139179314448909,-0.001538045560727612,-0.0028555695210854383,"(0.0008942728420112695, 0.0, 0.0, 0.0, 0.0, 0.0, 0.0, 0.0008942728420112695, 0.0, 0.0, 0.0, 0.0, 0.0, 0.0, 0.001201043750127237, 0.0, 0.0, 0.0, 0.0, 0.0, 0.0, 2.2474462435201262e-05, 5.046423909963135e-19, 3.6300903272132145e-15, 0.0, 0.0, 0.0, 5.046423909963687e-19, 2.247446243520168e-05, 2.7933419792975377e-15, 0.0, 0.0, 0.0, 3.6300903272132145e-15, 2.7933419792975373e-15, 2.3605215918665043e-05)"
1717334905.7878072,3885,78,300000000,odom,base_link,5.223056461104165,3.243809004729104,0.0009574344632685129,0.00010189878532362227,-6.265953948662937e-06,0.793591581302306,0.6084508128546471,"(18.75724451230691, -23.777850153144055, -5.235265396622309e-10, -4.2859668488644653e-23, 2.772164296301188e-19, -5.898086860854584, -23.777850153143053, 41.90977965113798, -7.238591615387287e-09, 3.5641563882351744e-23, -1.0310306918636015e-18, 9.397756589428715, -5.235265396622481e-10, -7.23859161538724e-09, 4.6636918206958855, -2.555960736587538e-19, 5.991302338992662e-15, 1.541269628009393e-13, -4.285966848864468e-23, 3.564156388235171e-23, -2.555960736587537e-19, 2.601953715757676e-07, 1.0307361639275914e-24, -1.5044750132011386e-12, 2.7721642963011876e-19, -1.0310306918636011e-18, 5.991302338992663e-15, 1.030736114846745e-24, 2.6019537157553523e-07, 5.3159509649332955e-18, -5.898086860854693, 9.397756589428889, 1.541269628009408e-13, -1.5044750132011388e-12, 5.31595096493361e-18, 4.662104858593664)",-6.120064006339638e-06,0.0,0.0,0.001641532186525222,-0.007955428350245075,-0.009730408202751195,"(0.0008942728461389804, 0.0, 0.0, 0.0, 0.0, 0.0, 0.0, 0.0008942728461389804, 0.0, 0.0, 0.0, 0.0, 0.0, 0.0, 0.001201043754421417, 0.0, 0.0, 0.0, 0.0, 0.0, 0.0, 2.2474462435201313e-05, 5.11055024540792e-19, 3.950614293640452e-15, 0.0, 0.0, 0.0, 5.110550245407661e-19, 2.2474462435201617e-05, 2.5964965396268334e-15, 0.0, 0.0, 0.0, 3.9506142936404524e-15, 2.596496539626833e-15, 2.3605215918664982e-05)"
1717334905.8082342,3886,78,321000000,odom,base_link,5.223056290804771,3.2438096389146986,0.0009574345728622529,0.0001017179252542654,-6.358918889290208e-06,0.7933141319461002,0.6088125143815897,"(18.758296679637738, -23.777851275515747, -5.206349305176361e-10, 8.640778848555606e-20, -7.238047263666288e-19, -5.898087530634811, -23.77785127551475, 41.91082939853786, -7.241451432780856e-09, 2.2406337036431267e-20, 2.6939763431083464e-18, 9.397756409483215, -5.206349305176535e-10, -7.2414514327808104e-09, 4.664952310638635, 3.519876811179919e-18, -1.3874783903914836e-14, 1.5412628385751772e-13, 8.640778848555607e-20, 2.240633703643127e-20, 3.519876811179918e-18, 3.0260217955299782e-05, -9.56613510986641e-19, -7.33619005244322e-12, -7.238047263666288e-19, 2.6939763431083468e-18, -1.3874783903914838e-14, -9.566135118047764e-19, 3.0260217955456246e-05, 8.31681219835923e-15, -5.898087530634919, 9.397756409483389, 1.5412628385751926e-13, -7.336190052443217e-12, 8.316812198359235e-15, 4.663364885638191)",1.1300624823111934e-05,0.0,0.0,0.0009037993048147288,0.00176826405294053,-0.12738684225244254,"(0.0009203997122383298, 0.0, 0.0, 0.0, 0.0, 0.0, 0.0, 0.0009203997122383298, 0.0, 0.0, 0.0, 0.0, 0.0, 0.0, 0.0012425186926762883, 0.0, 0.0, 0.0, 0.0, 0.0, 0.0, 3.247446243524936e-05, 6.161328901263812e-19, 4.593586829490805e-15, 0.0, 0.0, 0.0, 6.161328901260258e-19, 3.247446243524953e-05, 2.707213663525021e-15, 0.0, 0.0, 0.0, 4.5935868294908064e-15, 2.7072136635250204e-15, 4.360521591876023e-05)"
1717334905.8273563,3887,78,340000000,odom,base_link,5.22305638737447,3.243809279023315,0.000957434507760539,0.00010244639805648159,-6.7581479886156165e-06,0.7924007830543323,0.610000810224006,"(18.759247252504526, -23.77785140998663, -5.195082956901237e-10, 2.4952689517096266e-21, 4.857596225544576e-20, -5.898087610888334, -23.777851409985633, 41.91177968147804, -7.242142230829287e-09, 9.868795771405364e-22, -1.818224357161327e-19, 9.397756387922653, -5.195082956901409e-10, -7.2421422308292425e-09, 4.666092688787621, -1.9750247918971416e-18, 1.1893200608681215e-15, 1.5412688212017216e-13, 2.4952689517096262e-21, 9.86879577140536e-22, -1.9750247918971416e-18, 2.601953718621322e-07, -1.734484742413003e-21, 1.8306913934552437e-12, 4.857596225544578e-20, -1.8182243571613268e-19, 1.1893200608681217e-15, -1.734484746069128e-21, 2.601953718623906e-07, 2.446196186269646e-14, -5.898087610888442, 9.397756387922827, 1.5412688212017365e-13, 1.830691393455245e-12, 2.4461961862696457e-14, 4.664504914124947)",-1.806663528748968e-06,0.0,0.0,0.0044542227025483015,0.0005771124037925904,-0.23913490181806812,"(0.0008942734792240299, 0.0, 0.0, 0.0, 0.0, 0.0, 0.0, 0.0008942734792240299, 0.0, 0.0, 0.0, 0.0, 0.0, 0.0, 0.001201044540705778, 0.0, 0.0, 0.0, 0.0, 0.0, 0.0, 2.247446077733293e-05, 5.036332788012571e-19, 3.8943909883346606e-15, 0.0, 0.0, 0.0, 5.036332788003326e-19, 2.2474460777333324e-05, 2.7990515613890903e-15, 0.0, 0.0, 0.0, 3.894390988334659e-15, 2.7990515613890907e-15, 2.3605215918665897e-05)"
1717334905.8476434,3888,78,360000000,odom,base_link,5.223055307272019,3.243813339016693,0.0009574352216818827,0.00010231426241751755,-7.27745583779361e-06,0.790872814866061,0.6119805390571367,"(18.760263602418156, -23.777862002636592, -5.171996508710926e-10, 1.285135725596565e-20, -3.90586337991307e-18, -5.898093909742779, -23.777862002635604, 41.912773420336976, -7.243784678529776e-09, -5.353175845265522e-20, 1.4832913620149826e-17, 9.397754729347243, -5.171996508711101e-10, -7.24378467852973e-09, 4.667293123392308, 3.28437809860996e-16, -9.152972563007195e-14, 1.540311483364981e-13, 1.2851357255965652e-20, -5.3531758452655245e-20, 3.2843780986099607e-16, 2.601953719390062e-07, -2.9644794161770186e-21, 5.949589508930797e-13, -3.9058633799130705e-18, 1.4832913620149832e-17, -9.152972563007193e-14, -2.964479440605165e-21, 2.6019537193909273e-07, 4.08253570444333e-14, -5.898093909742888, 9.397754729347417, 1.5403114833649956e-13, 5.949589508930795e-13, 4.082535704443331e-14, 4.665704941048278)",9.415465143426331e-05,0.0,0.0,0.00730416072684024,0.003832505172128931,-0.28335925140262824,"(0.0008942733299483136, 0.0, 0.0, 0.0, 0.0, 0.0, 0.0, 0.0008942733299483136, 0.0, 0.0, 0.0, 0.0, 0.0, 0.0, 0.0012010442237712373, 0.0, 0.0, 0.0, 0.0, 0.0, 0.0, 2.247446241828813e-05, 5.572641013318706e-19, 3.7316763859429505e-15, 0.0, 0.0, 0.0, 5.572641013263377e-19, 2.2474462418288592e-05, 3.0091888495820375e-15, 0.0, 0.0, 0.0, 3.73167638594295e-15, 3.009188849582037e-15, 2.360521591866496e-05)"
1717334905.8670213,3889,78,380000000,odom,base_link,5.223054392603977,3.2438168533578646,0.0009574358378688482,0.00010201829769832408,-6.525196101637095e-06,0.7891086736583778,0.6142536045533673,"(18.76129237972775, -23.77788093452945, -5.148066183217826e-10, 1.676028317295397e-20, -4.954073876295266e-18, -5.8981051256982875, -23.777880934528465, 41.913762184064765, -7.245225391734503e-09, -8.281951278843142e-20, 1.9220217715246983e-17, 9.397751835270185, -5.148066183218003e-10, -7.2452253917344536e-09, 4.668493558228156, 5.571954982286528e-16, -1.3107187473085842e-13, 1.538843242618888e-13, 1.6760283172953967e-20, -8.281951278843144e-20, 5.571954982286527e-16, 2.601953720847902e-07, -3.772101500754499e-21, 3.7865397862162694e-12, -4.954073876295265e-18, 1.9220217715246986e-17, -1.310718747308584e-13, -3.772101515920812e-21, 2.6019537208528733e-07, 5.748745545377189e-14, -5.898105125698397, 9.397751835270359, 1.5388432426189023e-13, 3.78653978621627e-12, 5.748745545377189e-14, 4.66690496784349)",0.00013471334838595375,0.0,0.0,0.00019128153878248793,0.0048797254075808195,-0.30137816253850175,"(0.0008942731135428327, 0.0, 0.0, 0.0, 0.0, 0.0, 0.0, 0.0008942731135428327, 0.0, 0.0, 0.0, 0.0, 0.0, 0.0, 0.0012010439550547889, 0.0, 0.0, 0.0, 0.0, 0.0, 0.0, 2.247446243513523e-05, 5.545992529340383e-19, 3.395196698633812e-15, 0.0, 0.0, 0.0, 5.545992529307209e-19, 2.2474462435135834e-05, 3.295106674748745e-15, 0.0, 0.0, 0.0, 3.395196698633812e-15, 3.2951066747487453e-15, 2.3605215918664982e-05)"
1717334905.8872821,3890,78,400000000,odom,base_link,5.223052387596783,3.243824682703938,0.0009574371798384725,0.00010314930481025001,-6.783203783853852e-06,0.787216520820601,0.6166766889232292,"(18.76234459914792, -23.777915680062236, -5.130791832142852e-10, 2.34700332077826e-20, -8.849145172642442e-18, -5.898125619352993, -23.777915680061252, 41.91474182765427, -7.246752236678752e-09, -1.6317314056706997e-19, 3.5180108939645556e-17, 9.397746675782123, -5.13079183214303e-10, -7.2467522366786995e-09, 4.66969399316075, 1.1350022584557337e-15, -2.511137906929142e-13, 1.5359941833379728e-13, 2.3470033207782605e-20, -1.6317314056707002e-19, 1.1350022584557343e-15, 2.6019537215131376e-07, -3.996425864787777e-21, 4.804243270914201e-12, -8.849145172642446e-18, 3.518010893964557e-17, -2.511137906929143e-13, -3.9964258599473914e-21, 2.601953721519154e-07, 6.38782995217848e-14, -5.898125619353102, 9.397746675782297, 1.535994183337987e-13, 4.8042432709142e-12, 6.387829952178481e-14, 4.668104994631794)",0.0002581036088748985,0.0,0.0,-0.0026575342730146647,0.0052762900187847276,-0.3264318850567646,"(0.0008942729728909241, 0.0, 0.0, 0.0, 0.0, 0.0, 0.0, 0.0008942729728909241, 0.0, 0.0, 0.0, 0.0, 0.0, 0.0, 0.0012010438217721262, 0.0, 0.0, 0.0, 0.0, 0.0, 0.0, 2.2474462435322526e-05, 4.2171639321595447e-19, 3.2459231005526715e-15, 0.0, 0.0, 0.0, 4.217163932159166e-19, 2.247446243532294e-05, 2.586792147175697e-15, 0.0, 0.0, 0.0, 3.2459231005526708e-15, 2.5867921471756953e-15, 2.360521591866607e-05)"
1717334905.9064493,3891,78,420000000,odom,base_link,5.223049564326312,3.243835993467779,0.0009574389507652102,4.527179805927828e-05,5.2884279934811785e-06,0.7852007501604942,0.6192412937376625,"(18.763429583509943, -23.777972682636275, -5.113541573715468e-10, 8.333620103061174e-17, -3.139931810408094e-14, -5.898159084793351, -23.77797268263529, 41.91570921678644, -7.248336634906997e-09, -6.448415434018774e-16, 1.2822245609037107e-13, 9.397738471252705, -5.113541573715645e-10, -7.248336634906943e-09, 4.670894428133916, 4.480641323649183e-12, -9.154340109499197e-10, 1.5295273458525678e-13, 8.33362010306117e-17, -6.448415434018774e-16, 4.480641323649182e-12, 0.0006002840309679946, -2.3581326300094427e-14, 1.1974702057171234e-08, -3.1399318104080945e-14, 1.2822245609037107e-13, -9.154340109499198e-10, -2.3581326296501045e-14, 0.000600284034421283, 1.636410950685813e-10, -5.898159084793458, 9.397738471252877, 1.5295273458525817e-13, 1.1974702057171234e-08, 1.6364109506858127e-10, 4.669305031070974)",0.0004077743483845915,0.0,0.0,-0.0026575342730074105,0.0052762900187905085,-0.32615564763846333,"(0.000894272896827838, 0.0, 0.0, 0.0, 0.0, 0.0, 0.0, 0.000894272896827838, 0.0, 0.0, 0.0, 0.0, 0.0, 0.0, 0.0012010437650336568, 0.0, 0.0, 0.0, 0.0, 0.0, 0.0, 0.00022247446243528273, 4.2171639293721863e-19, 3.2326042091775156e-15, 0.0, 0.0, 0.0, 4.2171639293718073e-19, 0.00022247446243528314, 2.576177846543475e-15, 0.0, 0.0, 0.0, 3.2326042091775144e-15, 2.5761778465434734e-15, 0.0004230980306300804)"
1717334905.926927,3892,78,440000000,odom,base_link,5.2230459648029495,3.2438508404199466,0.0009574416361116541,0.0001026110620823274,-7.359243800108203e-06,0.7830091568895782,0.6220101684409053,"(18.764551625262072, -23.778055094597164, -5.089099178142295e-10, 8.330610410770066e-20, -2.1127581541790058e-17, -5.898207227597102, -23.778055094596187, 41.91666350155985, -7.250237237878341e-09, -4.69256528185621e-19, 8.886635307853045e-17, 9.397727008968227, -5.089099178142477e-10, -7.250237237878289e-09, 4.672094863124109, 2.9049949108372956e-15, -5.576807128160884e-13, 1.522865574717812e-13, 8.330610410770066e-20, -4.692565281856211e-19, 2.9049949108372964e-15, 2.601953723407058e-07, -4.388215476135472e-21, 1.2970544807823479e-12, -2.1127581541790052e-17, 8.886635307853043e-17, -5.576807128160883e-13, -4.388215479968536e-21, 2.601953723408898e-07, 6.183949561078588e-14, -5.898207227597209, 9.3977270089684, 1.5228655747178255e-13, 1.2970544807823479e-12, 6.183949561078591e-14, 4.67050504820712)",0.0005730330718299109,0.0,0.0,-0.0020877425072485076,0.0033504487104326235,-0.35013099524223185,"(0.000894272859408612, 0.0, 0.0, 0.0, 0.0, 0.0, 0.0, 0.000894272859408612, 0.0, 0.0, 0.0, 0.0, 0.0, 0.0, 0.0012010437436009043, 0.0, 0.0, 0.0, 0.0, 0.0, 0.0, 2.247446243536278e-05, 5.518796842719535e-19, 3.649234362458745e-15, 0.0, 0.0, 0.0, 5.518796842706192e-19, 2.2474462435363265e-05, 3.0480335337429637e-15, 0.0, 0.0, 0.0, 3.649234362458746e-15, 3.0480335337429645e-15, 2.3605215918664972e-05)"
1717334905.947054,3893,78,460000000,odom,base_link,5.223042618203228,3.2438651961342635,0.0009574441285297229,0.00010279232070888596,-7.68036019730862e-06,0.7808344983452874,0.62473792550846,"(18.76569706750363, -23.778153890412675, -5.072575447568344e-10, 9.234732557792096e-20, -2.1813739607419853e-17, -5.898264647512747, -23.778153890411687, 41.91761059368845, -7.25183970392655e-09, -5.02183756835477e-19, 9.467725993150869e-17, 9.397713756353356, -5.072575447568527e-10, -7.251839703926498e-09, 4.673295298121439, 3.335890005824065e-15, -6.354201454796184e-13, 1.5140144147279327e-13, 9.234732557792096e-20, -5.021837568354771e-19, 3.3358900058240657e-15, 2.601953723522742e-07, -4.590344509989534e-21, 3.3100664794067734e-12, -2.1813739607419847e-17, 9.467725993150867e-17, -6.354201454796184e-13, -4.5903445149211304e-21, 2.60195372352713e-07, 6.93126573236888e-14, -5.898264647512853, 9.397713756353529, 1.514014414727946e-13, 3.310066479406773e-12, 6.931265732368881e-14, 4.671705074994684)",0.0006527730827289908,0.0,0.0,0.003746648091016106,0.0045778345162166886,-0.34583296078994036,"(0.0008942728427141027, 0.0, 0.0, 0.0, 0.0, 0.0, 0.0, 0.0008942728427141027, 0.0, 0.0, 0.0, 0.0, 0.0, 0.0, 0.0012010437373904863, 0.0, 0.0, 0.0, 0.0, 0.0, 0.0, 2.2474462435365417e-05, 4.092262994240998e-19, 3.4238128032470053e-15, 0.0, 0.0, 0.0, 4.0922629942584433e-19, 2.2474462435365762e-05, 2.3734490237825503e-15, 0.0, 0.0, 0.0, 3.4238128032470053e-15, 2.3734490237825503e-15, 2.360521591866519e-05)"
1717334905.9672348,3894,78,480000000,odom,base_link,5.223039394078399,3.2438795418670407,0.0009574465957186277,0.00010278837647050049,-8.140208676175562e-06,0.7786611816925505,0.6274446218539509,"(18.76685481222107, -23.778261639993303, -5.049377008233537e-10, 7.008174058576245e-20, -2.1700947559634173e-17, -5.898326953845547, -23.77826163999231, 41.91855499176022, -7.2534066660627e-09, -5.139761654726286e-19, 9.727719426487795e-17, 9.397699830673115, -5.04937700823372e-10, -7.25340666606265e-09, 4.674495733121756, 3.5149818958007232e-15, -6.777927000206364e-13, 1.505034371953484e-13, 7.008174058576248e-20, -5.139761654726282e-19, 3.5149818958007232e-15, 2.6019537233322907e-07, -4.626931133890842e-21, 4.520345890992118e-12, -2.1700947559634173e-17, 9.72771942648779e-17, -6.777927000206363e-13, -4.626931145522622e-21, 2.6019537233380526e-07, 7.261303713252171e-14, -5.898326953845654, 9.397699830673288, 1.5050343719534972e-13, 4.5203458909921165e-12, 7.26130371325217e-14, 4.6729051017825)",0.0006962274581015247,0.0,0.0,-0.00032766095610164015,0.00228795196701006,-0.3519482848195571,"(0.0008942728366202584, 0.0, 0.0, 0.0, 0.0, 0.0, 0.0, 0.0008942728366202584, 0.0, 0.0, 0.0, 0.0, 0.0, 0.0, 0.0012010437375433432, 0.0, 0.0, 0.0, 0.0, 0.0, 0.0, 2.247446243536292e-05, 4.902952990602262e-19, 3.301455987114356e-15, 0.0, 0.0, 0.0, 4.902952990564553e-19, 2.2474462435363438e-05, 2.983051688927555e-15, 0.0, 0.0, 0.0, 3.3014559871143544e-15, 2.9830516889275554e-15, 2.3605215918665965e-05)"
1717334905.9874792,3895,78,500000000,odom,base_link,5.223036271769667,3.243893941281646,0.000957449087441397,0.0001027819522484073,-8.531820766224208e-06,0.7764637779841203,0.6301618766965399,"(18.768019581917347, -23.778374798598687, -5.031598937507286e-10, 8.626986959511195e-20, -2.348999073306028e-17, -5.898392058357975, -23.77837479859769, 41.9194987984352, -7.255217465673639e-09, -5.82632517087144e-19, 1.0886138371076148e-16, 9.397685754364728, -5.03159893750747e-10, -7.255217465673588e-09, 4.675696168123312, 3.704623900045212e-15, -7.019791043918725e-13, 1.4948310227845007e-13, 8.626986959511191e-20, -5.826325170871443e-19, 3.704623900045213e-15, 2.6019537236046525e-07, -4.545583408836227e-21, 2.276022615123366e-12, -2.3489990733060277e-17, 1.0886138371076147e-16, -7.019791043918723e-13, -4.545583421162997e-21, 2.6019537236077823e-07, 6.616271562764565e-14, -5.8983920583580804, 9.397685754364899, 1.4948310227845136e-13, 2.2760226151233655e-12, 6.616271562764563e-14, 4.674105128569909)",0.0007210159677251225,0.0,0.0,-0.008131778282502944,0.001128313036669339,-0.34273513720680415,"(0.0008942728358097864, 0.0, 0.0, 0.0, 0.0, 0.0, 0.0, 0.0008942728358097864, 0.0, 0.0, 0.0, 0.0, 0.0, 0.0, 0.001201043740290686, 0.0, 0.0, 0.0, 0.0, 0.0, 0.0, 2.247446243536712e-05, 4.53933340719884e-19, 3.5421609732149783e-15, 0.0, 0.0, 0.0, 4.539333407194622e-19, 2.2474462435367494e-05, 2.5601093049270653e-15, 0.0, 0.0, 0.0, 3.5421609732149776e-15, 2.560109304927065e-15, 2.3605215918665117e-05)"
1717334906.007775,3896,78,520000000,odom,base_link,5.22303323827131,3.243908440173644,0.0009574516372049996,0.0001027723378881819,-8.64719337328448e-06,0.774293179051892,0.6328270397484509,"(18.769188707516925, -23.77849156743412, -5.019864557275303e-10, 1.0613567814224621e-19, -2.4084377781776668e-17, -5.898458904821269, -23.77849156743311, 41.92044305780591, -7.25700342935009e-09, -5.973196509246706e-19, 1.1549889457185467e-16, 9.3976717870116, -5.019864557275487e-10, -7.257003429350035e-09, 4.676896603125372, 3.685821120809292e-15, -7.171110186862393e-13, 1.4843202702366934e-13, 1.061356781422462e-19, -5.973196509246707e-19, 3.685821120809291e-15, 2.6019537232016385e-07, -4.32015200456474e-21, 1.1273066458618958e-12, -2.4084377781776674e-17, 1.1549889457185477e-16, -7.171110186862394e-13, -4.3201520320076046e-21, 2.6019537232032473e-07, 6.064271391951237e-14, -5.898458904821376, 9.397671787011769, 1.4843202702367072e-13, 1.1273066458618956e-12, 6.064271391951233e-14, 4.675305155357215)",0.0007365112469694849,0.0,0.0,-0.002101295433057979,0.0038380219688600344,-0.34758703928604096,"(0.000894272837579041, 0.0, 0.0, 0.0, 0.0, 0.0, 0.0, 0.000894272837579041, 0.0, 0.0, 0.0, 0.0, 0.0, 0.0, 0.0012010437440536602, 0.0, 0.0, 0.0, 0.0, 0.0, 0.0, 2.2474462435358725e-05, 3.2619074510314847e-19, 3.665438599725758e-15, 0.0, 0.0, 0.0, 3.2619074509474636e-19, 2.247446243535891e-05, 1.7459150461677245e-15, 0.0, 0.0, 0.0, 3.665438599725759e-15, 1.7459150461677245e-15, 2.3605215918665226e-05)"
1717334906.0281715,3897,78,540000000,odom,base_link,5.223030277623622,3.243923104026117,0.0009574543150845514,0.00010272250777926882,-9.048444253055498e-06,0.7720895158922134,0.6355137833403298,"(18.770361026424876, -23.778611162024873, -4.999628988818566e-10, 8.52899985638191e-20, -2.167725613097088e-17, -5.89852703329724, -23.77861116202387, 41.92138822167351, -7.258592397709641e-09, -5.66829061429944e-19, 1.0767029322507238e-16, 9.397658041060994, -4.99962898881875e-10, -7.258592397709586e-09, 4.678097038127634, 3.798219758538139e-15, -7.287059343301943e-13, 1.4743897191302924e-13, 8.52899985638191e-20, -5.668290614299438e-19, 3.798219758538138e-15, 2.6019537234099964e-07, -4.605480928085711e-21, 3.786551949548669e-12, -2.1677256130970876e-17, 1.076702932250724e-16, -7.287059343301941e-13, -4.605480907980838e-21, 2.601953723414944e-07, 7.050110298534247e-14, -5.898527033297347, 9.397658041061163, 1.4743897191303066e-13, 3.7865519495486685e-12, 7.050110298534245e-14, 4.676505182144869)",0.0007483788310629981,0.0,0.0,0.004112111725230303,0.016574178229984908,-0.34806074870518316,"(0.0008942728405744061, 0.0, 0.0, 0.0, 0.0, 0.0, 0.0, 0.0008942728405744061, 0.0, 0.0, 0.0, 0.0, 0.0, 0.0, 0.0012010437481754727, 0.0, 0.0, 0.0, 0.0, 0.0, 0.0, 2.247446243536447e-05, 4.0368271860605896e-19, 3.378773227035918e-15, 0.0, 0.0, 0.0, 4.0368271861205337e-19, 2.2474462435364824e-05, 2.377024616267386e-15, 0.0, 0.0, 0.0, 3.378773227035917e-15, 2.3770246162673864e-15, 2.3605215918666076e-05)"
1717334906.0485258,3898,78,560000000,odom,base_link,5.223027355315632,3.2439381083238823,0.0009574567853577476,0.00010264377165912798,-9.316472432955024e-06,0.7698646853742984,0.6382071416013706,"(18.77153668522763, -23.778733711549947, -4.973857377205169e-10, -6.21927997603695e-20, -1.2324097742984627e-17, -5.898596502509141, -23.778733711548934, 41.922334329850145, -7.259257295033382e-09, -3.561239947868216e-19, 6.348580837535466e-17, 9.397644526534895, -4.973857377205352e-10, -7.2592572950333305e-09, 4.679297473129961, 3.8742849284690255e-15, -7.422924963167896e-13, 1.4685171529296186e-13, -6.21927997603695e-20, -3.561239947868216e-19, 3.8742849284690255e-15, 2.6019537234234177e-07, -4.301942101201943e-21, 1.6249189927675075e-11, -1.2324097742984626e-17, 6.348580837535466e-17, -7.422924963167893e-13, -4.301942089163111e-21, 2.601953723435686e-07, 1.1387292617101877e-13, -5.898596502509249, 9.397644526535064, 1.4685171529296323e-13, 1.6249189927675075e-11, 1.1387292617101877e-13, 4.677705208939154)",0.000762297792144688,0.0,0.0,0.0030651893234022913,0.004478289091677106,-0.35416644709172845,"(0.0008942728441235782, 0.0, 0.0, 0.0, 0.0, 0.0, 0.0, 0.0008942728441235782, 0.0, 0.0, 0.0, 0.0, 0.0, 0.0, 0.0012010437523841768, 0.0, 0.0, 0.0, 0.0, 0.0, 0.0, 2.2474462435363414e-05, 3.1400034017354756e-19, 2.0543217216921413e-15, 0.0, 0.0, 0.0, 3.140003401798781e-19, 2.247446243536403e-05, 3.024983247485133e-15, 0.0, 0.0, 0.0, 2.054321721692141e-15, 3.0249832474851326e-15, 2.360521591866535e-05)"
1717334906.0676885,3899,78,580000000,odom,base_link,5.223024470123315,3.243953488254712,0.000957459432249485,0.00010298704082775114,-9.816436323273975e-06,0.7676065927163921,0.6409212963505254,"(18.77271614189309, -23.778859565610635, -4.954235796191839e-10, -2.3278147380890398e-20, -2.0504326734223252e-17, -5.898667494685099, -23.77885956560962, 41.92328133416164, -7.261414204832451e-09, -6.074019542645584e-19, 1.0973954424848248e-16, 9.397631231565422, -4.954235796192024e-10, -7.261414204832399e-09, 4.6804979081323035, 4.024235879417592e-15, -7.577730884311473e-13, 1.4582080766484159e-13, -2.3278147380890416e-20, -6.074019542645583e-19, 4.024235879417592e-15, 2.601953723701104e-07, -4.723117869352162e-21, 4.4286042472153425e-12, -2.0504326734223252e-17, 1.0973954424848246e-16, -7.577730884311473e-13, -4.723117890440216e-21, 2.6019537237067534e-07, 7.405010445609401e-14, -5.898667494685207, 9.397631231565589, 1.4582080766484287e-13, 4.428604247215343e-12, 7.405010445609403e-14, 4.6789052357269485)",0.000778162199276848,0.0,0.0,-0.00936184399066951,0.003618571458863147,-0.35063788010047425,"(0.0008942728478950131, 0.0, 0.0, 0.0, 0.0, 0.0, 0.0, 0.0008942728478950131, 0.0, 0.0, 0.0, 0.0, 0.0, 0.0, 0.0012010437565686742, 0.0, 0.0, 0.0, 0.0, 0.0, 0.0, 2.2474462435369164e-05, 4.798963782255832e-19, 3.299781399102249e-15, 0.0, 0.0, 0.0, 4.798963782157866e-19, 2.2474462435369662e-05, 2.921079864576452e-15, 0.0, 0.0, 0.0, 3.2997813991022494e-15, 2.921079864576453e-15, 2.3605215918665107e-05)"
1717334906.0882053,3900,78,600000000,odom,base_link,5.223021649245679,3.243969137917454,0.0009574621164289718,0.00010315028234938252,-1.0325415041436935e-05,0.7653579816889791,0.6436048081846324,"(18.773899273265336, -23.778988666405976, -4.946060231803334e-10, 5.929159368500487e-20, -2.0791872687463586e-17, -5.8987399616933205, -23.778988666404953, 41.92422936337415, -7.263103151731455e-09, -6.178069330766765e-19, 1.1578911811805695e-16, 9.3976181883256, -4.946060231803523e-10, -7.263103151731402e-09, 4.681698343134638, 4.058701133393993e-15, -7.719198541627583e-13, 1.4474874954475324e-13, 5.92915936850049e-20, -6.178069330766767e-19, 4.0587011333939944e-15, 2.601953723544875e-07, -4.666620540122169e-21, 3.5614089617867373e-12, -2.0791872687463586e-17, 1.1578911811805693e-16, -7.719198541627581e-13, -4.666620520727729e-21, 2.6019537235495795e-07, 7.072148719866184e-14, -5.898739961693428, 9.397618188325765, 1.447487495447545e-13, 3.5614089617867357e-12, 7.072148719866181e-14, 4.680105262514558)",0.0007926523521302257,0.0,0.0,0.006585629955371268,0.0009992940595185233,-0.34938729754227804,"(0.0008942728517258399, 0.0, 0.0, 0.0, 0.0, 0.0, 0.0, 0.0008942728517258399, 0.0, 0.0, 0.0, 0.0, 0.0, 0.0, 0.0012010437606841272, 0.0, 0.0, 0.0, 0.0, 0.0, 0.0, 2.247446243536595e-05, 2.8775549995450143e-19, 3.412239764417834e-15, 0.0, 0.0, 0.0, 2.8775549995744358e-19, 2.2474462435366155e-05, 1.6348178461351606e-15, 0.0, 0.0, 0.0, 3.412239764417836e-15, 1.6348178461351606e-15, 2.360521591866531e-05)"
1717334906.1073165,3901,78,620000000,odom,base_link,5.2230189127700335,3.24398496475205,0.0009574649085470696,0.00010333622620570368,-1.0700696872964271e-05,0.7630952992196652,0.6462859688373012,"(18.77508549539098, -23.7791206192469, -4.919855153095629e-10, 8.840771794864219e-20, -2.2078938285002183e-17, -5.898813672560407, -23.779120619245877, 41.92517864236504, -7.26530895996639e-09, -6.759124457823805e-19, 1.281165724169366e-16, 9.397605452945857, -4.919855153095814e-10, -7.265308959966337e-09, 4.682898778136955, 4.103644421051475e-15, -7.832522423797643e-13, 1.4356530341927642e-13, 8.840771794864219e-20, -6.759124457823807e-19, 4.103644421051475e-15, 2.601953723492772e-07, -4.4210454551677444e-21, 1.02752872952141e-12, -2.207893828500219e-17, 1.2811657241693657e-16, -7.83252242379764e-13, -4.421045444714898e-21, 2.60195372349425e-07, 6.144763278140557e-14, -5.8988136725605145, 9.397605452946022, 1.435653034192777e-13, 1.0275287295214103e-12, 6.144763278140557e-14, 4.681305289301858)",0.0008042496080557256,0.0,0.0,0.0023021495958228015,0.004904272756705335,-0.356165848117934,"(0.0008942728555369223, 0.0, 0.0, 0.0, 0.0, 0.0, 0.0, 0.0008942728555369223, 0.0, 0.0, 0.0, 0.0, 0.0, 0.0, 0.0012010437647134642, 0.0, 0.0, 0.0, 0.0, 0.0, 0.0, 2.247446243536625e-05, 6.007076522075316e-19, 3.696872091012293e-15, 0.0, 0.0, 0.0, 6.007076522096568e-19, 2.2474462435366802e-05, 3.2855518603125336e-15, 0.0, 0.0, 0.0, 3.6968720910122924e-15, 3.2855518603125344e-15, 2.3605215918665778e-05)"
1717334906.1277616,3902,78,640000000,odom,base_link,5.223016260077691,3.2440009836606722,0.0009574677060163454,0.00010331327898915253,-1.1216379022426694e-05,0.7607762830074964,0.6490142035532479,"(18.776274420766107, -23.779255172494924, -4.900789627540542e-10, 6.440035294657591e-20, -1.8975467696010363e-17, -5.898888474103841, -23.7792551724939, 41.92612935311436, -7.2669073310341896e-09, -6.199871807937322e-19, 1.1493675280234903e-16, 9.397593070915017, -4.900789627540728e-10, -7.2669073310341375e-09, 4.684099213139251, 4.236958957215377e-15, -7.933603068696464e-13, 1.4248482411147178e-13, 6.440035294657587e-20, -6.199871807937319e-19, 4.236958957215376e-15, 2.6019537237903523e-07, -4.86345624746604e-21, 4.837585468567919e-12, -1.8975467696010363e-17, 1.1493675280234903e-16, -7.933603068696464e-13, -4.863456223226129e-21, 2.601953723796511e-07, 7.645638327252289e-14, -5.898888474103948, 9.397593070915182, 1.424848241114731e-13, 4.837585468567917e-12, 7.645638327252285e-14, 4.682505316089752)",0.0008145909157032047,0.0,0.0,0.00554207250430896,0.005970243110994256,-0.3648628177998692,"(0.0008942728592900963, 0.0, 0.0, 0.0, 0.0, 0.0, 0.0, 0.0008942728592900963, 0.0, 0.0, 0.0, 0.0, 0.0, 0.0, 0.001201043768650657, 0.0, 0.0, 0.0, 0.0, 0.0, 0.0, 2.247446243537106e-05, 4.713634526828086e-19, 3.300214956573478e-15, 0.0, 0.0, 0.0, 4.713634526888311e-19, 2.2474462435371553e-05, 2.8558882490521275e-15, 0.0, 0.0, 0.0, 3.3002149565734785e-15, 2.855888249052128e-15, 2.3605215918665124e-05)"
1717334906.1481578,3903,78,660000000,odom,base_link,5.223013687541383,3.244017240579734,0.0009574704696774141,0.00010351214700272585,-1.1779792894520349e-05,0.7584148824492951,0.6517720884065946,"(18.777466040051813, -23.779392352284336, -4.878437189838392e-10, 2.5520846914223568e-20, -1.774455876295315e-17, -5.898964363128571, -23.779392352283306, 41.92708160280915, -7.2686102164962754e-09, -6.268709940265499e-19, 1.1251885185756027e-16, 9.397581069123069, -4.878437189838576e-10, -7.268610216496225e-09, 4.685299648141523, 4.397304860303554e-15, -8.038181113825746e-13, 1.4140171811250334e-13, 2.5520846914223547e-20, -6.268709940265502e-19, 4.397304860303556e-15, 2.6019537241855806e-07, -5.045682701274178e-21, 5.888101249100963e-12, -1.7744558762953153e-17, 1.1251885185756034e-16, -8.038181113825748e-13, -5.045682758905164e-21, 2.601953724192813e-07, 8.217945806344342e-14, -5.898964363128677, 9.397581069123236, 1.4140171811250468e-13, 5.888101249100963e-12, 8.217945806344339e-14, 4.683705342877944)",0.0008252931298387117,0.0,0.0,0.007102123592797591,0.0004708261951684088,-0.35862959159862445,"(0.0008942728629680517, 0.0, 0.0, 0.0, 0.0, 0.0, 0.0, 0.0008942728629680517, 0.0, 0.0, 0.0, 0.0, 0.0, 0.0, 0.0012010437724949443, 0.0, 0.0, 0.0, 0.0, 0.0, 0.0, 2.2474462435379383e-05, 5.056139719398297e-19, 3.1919960300773917e-15, 0.0, 0.0, 0.0, 5.056139719280256e-19, 2.2474462435379982e-05, 3.1859728288709115e-15, 0.0, 0.0, 0.0, 3.191996030077392e-15, 3.1859728288709135e-15, 2.3605215918665067e-05)"
1717334906.1677103,3904,78,680000000,odom,base_link,5.223011207078388,3.2440336901340485,0.0009574733562504734,0.00010356975131133066,-1.2265358974415682e-05,0.7560912276380145,0.6544662287786188,"(18.77866022540598, -23.779532088926338, -4.85745637138633e-10, 6.917969915937461e-20, -2.0528232190169122e-17, -5.899041289385188, -23.77953208892532, 41.928035494081996, -7.270915942268965e-09, -7.406165936948657e-19, 1.3658460785305443e-16, 9.3975694733453, -4.857456371386515e-10, -7.270915942268909e-09, 4.686500083143774, 4.374346639904061e-15, -8.134614293751147e-13, 1.4011067721012568e-13, 6.917969915937462e-20, -7.406165936948657e-19, 4.37434663990406e-15, 2.601953723907081e-07, -4.537145119681921e-21, 5.141606485601188e-13, -2.052823219016913e-17, 1.3658460785305443e-16, -8.13461429375115e-13, -4.537145139016151e-21, 2.6019537239078353e-07, 6.170988033588442e-14, -5.899041289385292, 9.397569473345465, 1.40110677210127e-13, 5.141606485601188e-13, 6.170988033588442e-14, 4.684905369665224)",0.0008351568440317051,0.0,0.0,0.007763347791271435,0.002221207945256036,-0.34801361524934227,"(0.0008942728665633562, 0.0, 0.0, 0.0, 0.0, 0.0, 0.0, 0.0008942728665633562, 0.0, 0.0, 0.0, 0.0, 0.0, 0.0, 0.001201043776247274, 0.0, 0.0, 0.0, 0.0, 0.0, 0.0, 2.2474462435375046e-05, 6.261083071699396e-19, 3.7766011616860644e-15, 0.0, 0.0, 0.0, 6.261083071634624e-19, 2.247446243537561e-05, 3.3502132975955826e-15, 0.0, 0.0, 0.0, 3.776601161686065e-15, 3.3502132975955806e-15, 2.3605215918665734e-05)"
1717334906.1881201,3905,78,700000000,odom,base_link,5.2230088469387494,3.244050157723414,0.0009574762594445192,0.00010340129424478997,-1.2837954264891213e-05,0.7538155017558668,0.6570861271217876,"(18.779856141052075, -23.779673777626765, -4.835720978459782e-10, 8.215528456918192e-20, -1.8714167799160092e-17, -5.899118921459271, -23.779673777625757, 41.928991221253696, -7.272886378861345e-09, -6.848345268819114e-19, 1.307939415479841e-16, 9.397558332231558, -4.835720978459966e-10, -7.272886378861291e-09, 4.687700518146001, 4.272985511679077e-15, -8.187695185634364e-13, 1.38912040728558e-13, 8.215528456918193e-20, -6.848345268819111e-19, 4.272985511679076e-15, 2.6019537234305746e-07, -4.606290293386649e-21, 2.2225612688651957e-12, -1.871416779916009e-17, 1.307939415479841e-16, -8.18769518563436e-13, -4.6062902767560276e-21, 2.601953723433686e-07, 6.589601185940845e-14, -5.899118921459375, 9.397558332231723, 1.3891204072855931e-13, 2.2225612688651945e-12, 6.589601185940844e-14, 4.686105396452628)",0.0008405632726442148,0.0,0.0,0.007454888820332433,0.004824249897756926,-0.3448842523314173,"(0.0008942728700731875, 0.0, 0.0, 0.0, 0.0, 0.0, 0.0, 0.0008942728700731875, 0.0, 0.0, 0.0, 0.0, 0.0, 0.0, 0.0012010437799090117, 0.0, 0.0, 0.0, 0.0, 0.0, 0.0, 2.2474462435363604e-05, 6.104016203523698e-19, 3.604856554432651e-15, 0.0, 0.0, 0.0, 6.104016203581555e-19, 2.2474462435364227e-05, 3.418768221004005e-15, 0.0, 0.0, 0.0, 3.604856554432651e-15, 3.418768221004005e-15, 2.360521591866489e-05)"
1717334906.207498,3906,78,720000000,odom,base_link,5.223006597655373,3.2440666774194544,0.000957479173781668,0.0001032694610004128,-1.3133305884814268e-05,0.7515413615286396,0.6596859639818126,"(18.781053225051025, -23.779817005496035, -4.813787820117044e-10, 3.864902264508874e-20, -1.645730587363645e-17, -5.899197036474772, -23.77981700549503, 41.92994889500078, -7.274612047232994e-09, -6.321176319648316e-19, 1.2098719291486137e-16, 9.397547673612845, -4.813787820117227e-10, -7.274612047232938e-09, 4.688900953148203, 4.253703225564082e-15, -8.224545992712646e-13, 1.378139314879438e-13, 3.864902264508872e-20, -6.321176319648316e-19, 4.253703225564083e-15, 2.6019537232904806e-07, -4.766466458490896e-21, 4.766889149816743e-12, -1.6457305873636445e-17, 1.2098719291486146e-16, -8.224545992712645e-13, -4.766466481190749e-21, 2.601953723296616e-07, 7.411676770069204e-14, -5.899197036474876, 9.39754767361301, 1.3781393148794508e-13, 4.7668891498167415e-12, 7.411676770069204e-14, 4.687305423240503)",0.0008443057200186164,0.0,0.0,0.0038026824777994957,0.007676685810840183,-0.3478808855514709,"(0.0008942728734976055, 0.0, 0.0, 0.0, 0.0, 0.0, 0.0, 0.0008942728734976055, 0.0, 0.0, 0.0, 0.0, 0.0, 0.0, 0.0012010437834823705, 0.0, 0.0, 0.0, 0.0, 0.0, 0.0, 2.247446243536058e-05, 5.586226947754441e-19, 3.3353918756484725e-15, 0.0, 0.0, 0.0, 5.586226947673842e-19, 2.2474462435361226e-05, 3.376429512630397e-15, 0.0, 0.0, 0.0, 3.3353918756484733e-15, 3.376429512630397e-15, 2.3605215918664982e-05)"
1717334906.2282085,3907,78,740000000,odom,base_link,5.2230044582680435,3.2440832530921684,0.0009574820195747826,0.00010313371269878114,-1.3694186124841947e-05,0.7492464323637608,0.6622913050660433,"(18.782251229436053, -23.779961597065178, -4.79427993903505e-10, -1.1714378304558684e-20, -1.4147558949087074e-17, -5.899275536135444, -23.779961597064187, 41.93090858556967, -7.276053574083276e-09, -5.832869502250897e-19, 1.0968136891964873e-16, 9.397537515259355, -4.79427993903523e-10, -7.27605357408322e-09, 4.690101388150382, 4.305587580251675e-15, -8.253435961476631e-13, 1.3681108645624124e-13, -1.1714378304558699e-20, -5.832869502250897e-19, 4.3055875802516745e-15, 2.6019537234190533e-07, -4.901484487441343e-21, 7.55078088190327e-12, -1.4147558949087078e-17, 1.0968136891964876e-16, -8.253435961476632e-13, -4.901484484138421e-21, 2.6019537234278233e-07, 8.44448091685006e-14, -5.899275536135549, 9.397537515259518, 1.3681108645624256e-13, 7.550780881903275e-12, 8.444480916850059e-14, 4.68850545002929)",0.0008472317343634149,0.0,0.0,0.003987153751209909,0.004231794715259351,-0.3459776215433623,"(0.0008942728768375777, 0.0, 0.0, 0.0, 0.0, 0.0, 0.0, 0.0008942728768375777, 0.0, 0.0, 0.0, 0.0, 0.0, 0.0, 0.0012010437869693366, 0.0, 0.0, 0.0, 0.0, 0.0, 0.0, 2.247446243536326e-05, 4.542424642031597e-19, 3.0325020630594293e-15, 0.0, 0.0, 0.0, 4.54242464205403e-19, 2.247446243536382e-05, 2.9963027036067416e-15, 0.0, 0.0, 0.0, 3.0325020630594285e-15, 2.9963027036067396e-15, 2.3605215918665155e-05)"
1717334906.2476277,3908,78,760000000,odom,base_link,5.223002432108319,3.2440998664443934,0.000957484928456959,0.00010317602784982411,-1.40731157177156e-05,0.7469362985027861,0.6648955971696696,"(18.7834499488767, -23.780107408310336, -4.77517836091802e-10, -2.6097077343556408e-21, -1.5155763553170944e-17, -5.899354339016841, -23.78010740830934, 41.931870355157116, -7.277995254139892e-09, -6.547519258422557e-19, 1.2428911370679244e-16, 9.397527872946656, -4.7751783609182e-10, -7.277995254139836e-09, 4.691301823152539, 4.2928037109918395e-15, -8.273989861935616e-13, 1.356819974813832e-13, -2.609707734355623e-21, -6.547519258422557e-19, 4.2928037109918395e-15, 2.6019537233388896e-07, -4.743735747738992e-21, 4.18415989182253e-12, -1.5155763553170944e-17, 1.2428911370679237e-16, -8.273989861935615e-13, -4.74373569888539e-21, 2.601953723344377e-07, 7.237919899514892e-14, -5.899354339016946, 9.397527872946819, 1.356819974813845e-13, 4.184159891822531e-12, 7.237919899514896e-14, 4.6897054768170285)",0.0008493015557196457,0.0,0.0,0.005330147569071803,0.005490201908131769,-0.35557665900401125,"(0.0008942728800947404, 0.0, 0.0, 0.0, 0.0, 0.0, 0.0, 0.0008942728800947404, 0.0, 0.0, 0.0, 0.0, 0.0, 0.0, 0.001201043790372054, 0.0, 0.0, 0.0, 0.0, 0.0, 0.0, 2.2474462435363035e-05, 5.070314434866374e-19, 3.3918449909393075e-15, 0.0, 0.0, 0.0, 5.070314434964701e-19, 2.2474462435363557e-05, 3.003802569077749e-15, 0.0, 0.0, 0.0, 3.3918449909393075e-15, 3.003802569077748e-15, 2.3605215918665937e-05)"
