Time,header.seq,header.stamp.secs,header.stamp.nsecs,header.frame_id,name,position_0,position_1,velocity_0,velocity_1
86.256,8607,86,255000000,,"['joint1', 'joint2']",0.22112132566953946,-0.1272255928825068,0.22365890888112797,-0.3107893512791791
86.266,8608,86,265000000,,"['joint1', 'joint2']",0.22271561680149254,-0.12840108881557377,0.12963314214324512,-0.029781081977149085
86.276,8609,86,275000000,,"['joint1', 'joint2']",0.22388631087514455,-0.128365152188894,0.11071509800891106,0.018671686510055907
86.286,8610,86,285000000,,"['joint1', 'joint2']",0.22495663929135556,-0.12812293379731532,0.10467912156884752,0.026621516560729225
86.296,8611,86,295000000,,"['joint1', 'joint2']",0.22598120989178927,-0.127850118528821,0.10073181998929413,0.027436501128176097
86.306,8612,86,305000000,,"['joint1', 'joint2']",0.22696807738101743,-0.12757810047140428,0.09701004326451997,0.026931546175446977
86.316,8613,86,315000000,,"['joint1', 'joint2']",0.22791734625910465,-0.12731307930793712,0.09320469239823821,0.02612711945906153
86.326,8614,86,325000000,,"['joint1', 'joint2']",0.228827890095193,-0.12705678948604238,0.08927695275430451,0.025208448531079758
86.336,8615,86,335000000,,"['joint1', 'joint2']",0.22969851780202166,-0.12681011417610666,0.08523511640933479,0.02421500466217584
86.346,8616,86,345000000,,"['joint1', 'joint2']",0.23264521302530472,-0.13251968997713526,0.3822887921838729,-0.7881169269050899
86.356,8617,86,355000000,,"['joint1', 'joint2']",0.23494678641839073,-0.13575263084124245,0.16054552940701183,-0.11237214247534177
86.366,8618,86,365000000,,"['joint1', 'joint2']",0.23627449675657441,-0.13606971832885684,0.11950878940796887,0.00494802666016525
86.376,8619,86,375000000,,"['joint1', 'joint2']",0.23740672156862885,-0.13588142440495599,0.10970660131427944,0.025045486513100915
86.386,8620,86,385000000,,"['joint1', 'joint2']",0.2384775510026742,-0.13560940846270597,0.10519680592552433,0.02805247454408384
86.395,8621,86,395000000,,"['joint1', 'joint2']",0.2395088320659271,-0.13532831567995096,0.1014593391719966,0.02798367986432164
86.406,8622,86,405000000,,"['joint1', 'joint2']",0.24050293745738838,-0.13505201432307867,0.0977189320058661,0.027299751098363884
86.416,8623,86,416000000,,"['joint1', 'joint2']",0.24145898830971468,-0.13478365686857252,0.09385559645111129,0.0264391447283404
86.426,8624,86,425000000,,"['joint1', 'joint2']",0.2423756890004567,-0.1345244419815046,0.08986340921460771,0.025486314799094648
86.436,8625,86,435000000,,"['joint1', 'joint2']",0.24325182235690868,-0.13427515205998297,0.08575635632134906,0.024463356395396305
86.446,8626,86,445000000,,"['joint1', 'joint2']",0.2461999483531896,-0.1399723325777753,0.38263115246360513,-0.7875963750770852
86.456,8627,86,455000000,,"['joint1', 'joint2']",0.24850761195574744,-0.14320892007528663,0.16116004810601361,-0.11282405544111473
86.466,8628,86,465000000,,"['joint1', 'joint2']",0.24984035651914738,-0.143528211574524,0.11992845733985635,0.0048919117560407704
86.476,8629,86,476000000,,"['joint1', 'joint2']",0.25097606135858985,-0.1433394445247682,0.11000611510922632,0.02514616009540642
86.486,8630,86,485000000,,"['joint1', 'joint2']",0.2520494435216083,-0.1430662247837704,0.10541942099691218,0.028178748551511965
86.496,8631,86,495000000,,"['joint1', 'joint2']",0.2530825990070795,-0.14278392420297603,0.1016191104189654,0.02809742741625043
86.506,8632,86,505000000,,"['joint1', 'joint2']",0.2540779799935713,-0.14250659890001938,0.0978206063984205,0.027392370503549174
86.516,8633,86,515000000,,"['joint1', 'joint2']",0.25503473998369053,-0.1422374376523523,0.09390167124799519,0.0265095095815
86.526,8634,86,525000000,,"['joint1', 'joint2']",0.2559516052633608,-0.14197763883542436,0.08985595230531458,0.025535016931228408
86.536,8635,86,535000000,,"['joint1', 'joint2']",0.2568273792075457,-0.1417279764399053,0.08569743555502304,0.02449135736444369
86.546,8636,86,545000000,,"['joint1', 'joint2']",0.25977102741244007,-0.14741437131679191,0.38239280225660494,-0.7872405984397206
86.556,8637,86,555000000,,"['joint1', 'joint2']",0.2620793195088753,-0.15065696066466572,0.1612391243895721,-0.11350831497684348
86.566,8638,86,565000000,,"['joint1', 'joint2']",0.2634117845288264,-0.15098066692466094,0.11982327025797328,0.004626320095811931
86.576,8639,86,575000000,,"['joint1', 'joint2']",0.2645457961057103,-0.1507934035385743,0.10979580748662408,0.025056928379216165
86.586,8640,86,585000000,,"['joint1', 'joint2']",0.2656167333186197,-0.15052081697086628,0.10515081108979259,0.028126500951204086
86.596,8641,86,595000000,,"['joint1', 'joint2']",0.2666469624348604,-0.15023904423935086,0.10130787468364151,0.028041972713212335
86.606,8642,86,605000000,,"['joint1', 'joint2']",0.2676390264837458,-0.1499623408440689,0.09747263660979195,0.027324430802977015
86.616,8643,86,615000000,,"['joint1', 'joint2']",0.2685921184560751,-0.1496939344748709,0.09351993411436488,0.02642799083535606
86.626,8644,86,625000000,,"['joint1', 'joint2']",0.2695049923150643,-0.1494350238441191,0.08944301001389046,0.025440501832157986
86.636,8645,86,635000000,,"['joint1', 'joint2']",0.27037647642101525,-0.14918637468974705,0.0852557516128922,0.024384794460232215
86.646,8646,86,645000000,,"['joint1', 'joint2']",0.273311586487754,-0.1548627480195881,0.38183668032338297,-0.7870026463269346
86.656,8647,86,655000000,,"['joint1', 'joint2']",0.2756172981102383,-0.15811286793291668,0.16099312130920534,-0.1143401998722198
86.666,8648,86,665000000,,"['joint1', 'joint2']",0.27694632942706576,-0.15844229829470446,0.11940774929917518,0.004241779178984412
86.676,8649,86,675000000,,"['joint1', 'joint2']",0.2780756734904246,-0.15825764131747988,0.10929711052328563,0.024863611117793408
86.686,8650,86,685000000,,"['joint1', 'joint2']",0.27914140664874676,-0.1579866590838943,0.10461661137829466,0.02798140213064393
86.696,8651,86,695000000,,"['joint1', 'joint2']",0.2801661794796235,-0.15770628857400482,0.10075435376376735,0.02790289855745741
86.706,8652,86,705000000,,"['joint1', 'joint2']",0.2811526267695452,-0.15743099718622489,0.0969048728798048,0.027181185267107097
86.716,8653,86,715000000,,"['joint1', 'joint2']",0.28209997866692493,-0.15716405562953195,0.09294103496131131,0.026279055488592343
86.726,8654,86,726000000,,"['joint1', 'joint2']",0.28300701418016416,-0.15690666511662688,0.0888553814344559,0.025286170912214523
86.736,8655,86,735000000,,"['joint1', 'joint2']",0.28387258366050716,-0.1566595851498791,0.08466142938629195,0.024225922757440982
86.746,8656,86,745000000,,"['joint1', 'joint2']",0.28679772624992594,-0.16232583154856073,0.38106951351880175,-0.7867106698752154
86.756,8657,86,755000000,,"['joint1', 'joint2']",0.28909957531957087,-0.16558412986761084,0.16064545790046128,-0.11524826283292028
86.766,8658,86,765000000,,"['joint1', 'joint2']",0.29042426680282585,-0.1659198968691884,0.11890973790271683,0.0038092449699461683
86.776,8659,86,775000000,,"['joint1', 'joint2']",0.29154819484246186,-0.16573820565899666,0.10873151805588707,0.024642461422915082
86.786,8660,86,785000000,,"['joint1', 'joint2']",0.2926081504754121,-0.16546905013293234,0.10403311405324651,0.027818563707758773
86.796,8661,86,795000000,,"['joint1', 'joint2']",0.29362707369230634,-0.16519022211841072,0.10016925941186662,0.027752678854215354
86.806,8662,86,805000000,,"['joint1', 'joint2']",0.29460769063250325,-0.1649164169335693,0.09632391162835822,0.027033034089104166
86.816,8663,86,815000000,,"['joint1', 'joint2']",0.29554926483471444,-0.16465095527947238,0.09236625310596294,0.026130971377825163
86.826,8664,86,825000000,,"['joint1', 'joint2']",0.29645059254815553,-0.1643950445167519,0.08828812875137357,0.02513829457819855
86.836,8665,86,835000000,,"['joint1', 'joint2']",0.2973105372222209,-0.16414944049711,0.08410303985750217,0.02407864428214211
86.846,8666,86,845000000,,"['joint1', 'joint2']",0.3002259625402326,-0.16980486242018156,0.3803352037352537,-0.7863499080459591
86.856,8667,86,855000000,,"['joint1', 'joint2']",0.30252461990639734,-0.17307140923823372,0.160369961689798,-0.11616225108899655
86.866,8668,86,865000000,,"['joint1', 'joint2']",0.30384577631110243,-0.17341350981600634,0.1184959697927341,0.0033886377945461232
86.876,8669,86,875000000,,"['joint1', 'joint2']",0.30496516670853246,-0.17323458551257964,0.1082577259288196,0.024446215547154995
86.886,8670,86,885000000,,"['joint1', 'joint2']",0.3060203233232546,-0.17296695695327013,0.10355230105893186,0.02768808227223646
86.896,8671,86,895000000,,"['joint1', 'joint2']",0.3070344808094463,-0.17268931756212869,0.09969754552848323,0.027639486144911962
86.906,8672,86,905000000,,"['joint1', 'joint2']",0.30801045143283545,-0.1724166078490077,0.0958655793928102,0.026925354774280055
86.916,8673,86,915000000,,"['joint1', 'joint2']",0.30894752393220326,-0.17215220478289872,0.09192290228678351,0.026026220224207905
86.926,8674,86,925000000,,"['joint1', 'joint2']",0.30984450383725015,-0.17189732539463254,0.08786045119489641,0.02503620540340243
86.936,8675,86,935000000,,"['joint1', 'joint2']",0.31070026008003104,-0.1716527249389843,0.08369151089021967,0.023979421209773533
86.946,8676,86,945000000,,"['joint1', 'joint2']",0.31360743080453357,-0.17729626786708064,0.379684203907129,-0.7858477803636477
86.956,8677,86,955000000,,"['joint1', 'joint2']",0.3159043954390892,-0.18057076310592723,0.16026182986945883,-0.1170570618453552
86.966,8678,86,965000000,,"['joint1', 'joint2']",0.31722371079367573,-0.18091893395453962,0.1182504584538305,0.0030030055780830706
86.976,8679,86,975000000,,"['joint1', 'joint2']",0.31834026105747526,-0.18074232201395724,0.1079543808908977,0.024300957554788255
86.986,8680,86,985000000,,"['joint1', 'joint2']",0.31939233199806427,-0.18047568308201978,0.10324378131667383,0.0276134894791622
86.996,8681,86,995000000,,"['joint1', 'joint2']",0.3204034598693992,-0.18019866502126192,0.09940027904718232,0.02758398543333586
87.006,8682,87,5000000,,"['joint1', 'joint2']",0.3213765407971092,-0.17992647188010213,0.09558366402207538,0.02687600624514025
87.015,8683,87,15000000,,"['joint1', 'joint2']",0.32231088287239107,-0.17966254320625286,0.09165716970604197,0.025980161650886638
87.026,8684,87,25000000,,"['joint1', 'joint2']",0.32320529469476256,-0.17940810889414305,0.08761094364870267,0.024992929961703977
87.036,8685,87,35000000,,"['joint1', 'joint2']",0.3240586443487308,-0.17916392584997798,0.08345807743593195,0.023938926721420117
87.046,8686,87,46000000,,"['joint1', 'joint2']",0.3269590091486858,-0.18479450809739006,0.37924906222784865,-0.7852809959728229
87.056,8687,87,56000000,,"['joint1', 'joint2']",0.32925628258862716,-0.1880766383618937,0.16034403863975005,-0.11792197897101928
87.066,8688,87,65000000,,"['joint1', 'joint2']",0.33057559167088346,-0.18843048050864386,0.11818548630338817,0.0026636975625569242
87.076,8689,87,75000000,,"['joint1', 'joint2']",0.331691067258979,-0.18825567509736274,0.10782518774203123,0.02420906979590584
87.086,8690,87,85000000,,"['joint1', 'joint2']",0.33274177238688996,-0.1879894788166574,0.10310558080683431,0.027594163481147682
87.096,8691,87,95000000,,"['joint1', 'joint2']",0.33375155440072835,-0.1877125301780982,0.0992697825692459,0.027583434761952574
87.106,8692,87,105000000,,"['joint1', 'joint2']",0.33472339289187136,-0.18744030970284342,0.09546475408989465,0.026880528252537644
87.116,8693,87,115000000,,"['joint1', 'joint2']",0.335656612311646,-0.1871763240985027,0.09155033798798312,0.02598660322987914
87.126,8694,87,125000000,,"['joint1', 'joint2']",0.3365500208426342,-0.18692181814081277,0.08751588300733121,0.02500063171099466
87.136,8695,87,135000000,,"['joint1', 'joint2']",0.3374024823273878,-0.1866775516411554,0.08337430776291717,0.023947776525306483
87.146,8696,87,145000000,,"['joint1', 'joint2']",0.3402973386619834,-0.19229418871677684,0.3789426670061806,-0.7846209055504038
87.157,8697,87,155000000,,"['joint1', 'joint2']",0.34259640972085936,-0.1955837024896967,0.16057554911514335,-0.11877070237484008
87.166,8698,87,165000000,,"['joint1', 'joint2']",0.3439171497462885,-0.1959429801955297,0.11825906636027843,0.0023537193440717197
87.176,8699,87,175000000,,"['joint1', 'joint2']",0.3450328904196063,-0.19576962940553688,0.10782604784298135,0.024155894130457836
87.185,8700,87,185000000,,"['joint1', 'joint2']",0.3460834895328153,-0.1955034823808104,0.10309009167285912,0.027614893473392285
87.196,8701,87,195000000,,"['joint1', 'joint2']",0.3470931181705321,-0.1952262112266947,0.09925541092085911,0.027621814951463472
87.206,8702,87,205000000,,"['joint1', 'joint2']",0.34806484252824,-0.19495358757086034,0.09545572127976665,0.026921970011130322
87.216,8703,87,215000000,,"['joint1', 'joint2']",0.3489980032736817,-0.19468918944950797,0.09154694364515867,0.026027861881065054
87.226,8704,87,225000000,,"['joint1', 'joint2']",0.3498914077225299,-0.19443427780593314,0.08751774795025322,0.025040993698799294
87.236,8705,87,235000000,,"['joint1', 'joint2']",0.3507439149065146,-0.19418961572004712,0.08338090151172424,0.023987110757008656
87.246,8706,87,245000000,,"['joint1', 'joint2']",0.3536337693019771,-0.19979153921871884,0.37876283686285056,-0.7839501024738584
87.256,8707,87,255000000,,"['joint1', 'joint2']",0.3559357038504247,-0.20308841455587334,0.1608995581792244,-0.11962051391526869
87.266,8708,87,265000000,,"['joint1', 'joint2']",0.3572586967401863,-0.20345305253345103,0.11840985983558479,0.002056330541310089
87.276,8709,87,275000000,,"['joint1', 'joint2']",0.3583754043579086,-0.20328099657536836,0.10789297399874928,0.02412043626841473
87.286,8710,87,286000000,,"['joint1', 'joint2']",0.3594265166907826,-0.20301470887968875,0.10313335280352497,0.02765432426993958
87.296,8711,87,295000000,,"['joint1', 'joint2']",0.3604365409604764,-0.20273693055479836,0.09929315193317723,0.02767766770443396
87.306,8712,87,305000000,,"['joint1', 'joint2']",0.3614086347081331,-0.20246373591761557,0.09549224555587886,0.02697911394049339
87.316,8713,87,315000000,,"['joint1', 'joint2']",0.3623421573166885,-0.20219877745174752,0.09158284314849237,0.026082782043312033
87.326,8714,87,325000000,,"['joint1', 'joint2']",0.3632359164942942,-0.20194333275498622,0.0875528057138039,0.02509295570287498
87.336,8715,87,335000000,,"['joint1', 'joint2']",0.36408876793190004,-0.20169816791632122,0.08341473662308874,0.024036024175064424
87.346,8716,87,345000000,,"['joint1', 'joint2']",0.36697391831760484,-0.20728482017411132,0.3785255096880386,-0.7831626278072629
87.356,8717,87,355000000,,"['joint1', 'joint2']",0.36927874151781737,-0.21058911932770386,0.16124488830211334,-0.12049911767489363
87.366,8718,87,365000000,,"['joint1', 'joint2']",0.3706041769101649,-0.2109593136521788,0.11857614569818012,0.0017446160705233277
87.376,8719,87,375000000,,"['joint1', 'joint2']",0.37172196284700654,-0.21078861638764046,0.10796736606627982,0.024082571817315004
87.386,8720,87,385000000,,"['joint1', 'joint2']",0.37277362641566203,-0.21052219464816613,0.10317769190648642,0.027693848684766237
87.396,8721,87,395000000,,"['joint1', 'joint2']",0.3737840273582691,-0.21024390947243,0.09932668501339345,0.02773316961510726
87.406,8722,87,405000000,,"['joint1', 'joint2']",0.37475642185957536,-0.2099701540996204,0.09551976839200753,0.02703462929554215
87.416,8723,87,415000000,,"['joint1', 'joint2']",0.3756901916043187,-0.2097046595963059,0.09160527898028323,0.026134617466685953
87.426,8724,87,425000000,,"['joint1', 'joint2']",0.37658414743865265,-0.20944872058850805,0.08757017251812857,0.02514040613293489
87.436,8725,87,435000000,,"['joint1', 'joint2']",0.37743714406497286,-0.20920310564736688,0.08342688788500519,0.024079066525485124
87.446,8726,87,445000000,,"['joint1', 'joint2']",0.38031720566220706,-0.21477407833240303,0.3781508892495883,-0.7822922288905565
87.456,8727,87,455000000,,"['joint1', 'joint2']",0.3826246914461109,-0.21808606689056464,0.16157135476530501,-0.1214169381768756
87.466,8728,87,465000000,,"['joint1', 'joint2']",0.383952331962333,-0.21846211267745197,0.11871556414566979,0.0014076480930320379
87.476,8729,87,475000000,,"['joint1', 'joint2']",0.385070892173176,-0.21829295880429989,0.10800871800993007,0.024029469610717266
87.486,8730,87,485000000,,"['joint1', 'joint2']",0.3861227529945319,-0.21802653247266868,0.10318513678253638,0.02772094770888929
87.496,8731,87,495000000,,"['joint1', 'joint2']",0.3871331429411695,-0.21774785877521374,0.09932042250997732,0.02777646230294062
87.506,8732,87,505000000,,"['joint1', 'joint2']",0.3881054238466133,-0.217473663887918,0.09550488305030938,0.027077492721277477
87.516,8733,87,515000000,,"['joint1', 'joint2']",0.38903900357632537,-0.21720776120593133,0.0915831544749734,0.026173084914190695
87.526,8734,87,525000000,,"['joint1', 'joint2']",0.3899326987568408,-0.21695146267016963,0.087541079005945,0.02517379056495067
87.536,8735,87,535000000,,"['joint1', 'joint2']",0.3907853654678828,-0.2167055388167185,0.0833909105564808,0.02410740998453413
87.546,8736,87,545000000,,"['joint1', 'joint2']",0.3936597563368398,-0.22226053382561162,0.37780735565360385,-0.7814405850146328
87.556,8737,87,555000000,,"['joint1', 'joint2']",0.39596938239638657,-0.2255804875466083,0.16185503391434525,-0.12238377674419491
87.566,8738,87,565000000,,"['joint1', 'joint2']",0.39729879024267944,-0.22596277252239716,0.11880914772979251,0.0010404429120468295
87.576,8739,87,575000000,,"['joint1', 'joint2']",0.39841763751976167,-0.22579541241858347,0.10799950267052354,0.02395661264178943
87.586,8740,87,585000000,,"['joint1', 'joint2']",0.3994691791666831,-0.2255291647424844,0.10313985960219291,0.0277317369593975
87.596,8741,87,595000000,,"['joint1', 'joint2']",0.4004790295958527,-0.225250266431118,0.09926049488800477,0.027804396022330535
87.606,8742,87,605000000,,"['joint1', 'joint2']",0.4014506631033399,-0.224975791726453,0.0954362710104488,0.02710493331296844
87.616,8743,87,615000000,,"['joint1', 'joint2']",0.4023835167367622,-0.22470964014589878,0.0915071836786728,0.02619613557020023
87.627,8744,87,625000000,,"['joint1', 'joint2']",0.40327641511578083,-0.22445314174346898,0.08745820259055882,0.025191769964979793
87.636,8745,87,635000000,,"['joint1', 'joint2']",0.40412821748728955,-0.22420706875627427,0.08330138157351696,0.024120403953965613
87.646,8746,87,645000000,,"['joint1', 'joint2']",0.4069960988209136,-0.22974581700625052,0.37741840932900633,-0.780598903322547
87.656,8747,87,655000000,,"['joint1', 'joint2']",0.40930755581264044,-0.23307409573774152,0.1621041020509483,-0.12339680131968087
87.666,8748,87,665000000,,"['joint1', 'joint2']",0.41063828280743575,-0.23346293364441273,0.1188556620505517,0.0006449975384907186
87.675,8749,87,675000000,,"['joint1', 'joint2']",0.411756938138538,-0.23329759434019248,0.10794170444057291,0.02386357895441235
87.686,8750,87,685000000,,"['joint1', 'joint2']",0.41280767134546004,-0.23303169564752046,0.10304609284249346,0.027726017947754103
87.696,8751,87,695000000,,"['joint1', 'joint2']",0.4138164964872839,-0.23275272203382258,0.09915275779625583,0.02781723587020682
87.706,8752,87,705000000,,"['joint1', 'joint2']",0.41478700587088646,-0.2324781083871077,0.0953206998723159,0.02711799771993284
87.716,8753,87,715000000,,"['joint1', 'joint2']",0.4157186680968836,-0.2322118442952128,0.09138546878766733,0.02620516421497357
87.726,8754,87,725000000,,"['joint1', 'joint2']",0.4166103170942952,-0.2319552787145236,0.08733091507268445,0.025196046824020255
87.736,8755,87,735000000,,"['joint1', 'joint2']",0.4174608162094442,-0.23170918554579067,0.08316886121764255,0.02412003209626952
87.745,8756,87,745000000,,"['joint1', 'joint2']",0.42032181913534483,-0.23723137761629065,0.3770070531606254,-0.7797083830696578
87.756,8757,87,755000000,,"['joint1', 'joint2']",0.42263452861119877,-0.24056816829233174,0.16231756481260046,-0.12445802298367892
87.766,8758,87,765000000,,"['joint1', 'joint2']",0.4239662527952124,-0.24096393786792714,0.11887010691913825,0.00022067821572463453
87.776,8759,87,775000000,,"['joint1', 'joint2']",0.4250843790278598,-0.24080083616431125,0.10784944722099497,0.02375450729439192
87.786,8760,87,785000000,,"['joint1', 'joint2']",0.42613395972044366,-0.24053541849502302,0.10291797889477776,0.02770927688129901
87.796,8761,87,795000000,,"['joint1', 'joint2']",0.427141424766706,-0.24025647206596723,0.09901199347795135,0.027820817980624454
87.806,8762,87,805000000,,"['joint1', 'joint2']",0.42811048986442213,-0.23998180986759632,0.09517373788126343,0.0271226183664533
87.816,8763,87,815000000,,"['joint1', 'joint2']",0.42904065727367247,-0.23971551706921268,0.09123407026955634,0.026206336280971354
87.826,8764,87,825000000,,"['joint1', 'joint2']",0.4299307707876787,-0.23945896286709445,0.08717567987345366,0.02519299327249931
87.836,8765,87,835000000,,"['joint1', 'joint2']",0.4307796980588394,-0.23921292312500686,0.08301014075475506,0.024112844885364443
87.846,8766,87,845000000,,"['joint1', 'joint2']",0.4336332912726961,-0.2447181847186819,0.37651289432785745,-0.7787934037196048
87.856,8767,87,855000000,,"['joint1', 'joint2']",0.43594719224039746,-0.24806372024077916,0.16252094892488697,-0.12555342157633215
87.866,8768,87,865000000,,"['joint1', 'joint2']",0.43727978001386436,-0.2484666706089147,0.11886846602601497,-0.000221545050809277
87.876,8769,87,875000000,,"['joint1', 'joint2']",0.43839721518293295,-0.24830594179610266,0.10774049329509837,0.023635725043365974
87.886,8770,87,885000000,,"['joint1', 'joint2']",0.4394454771099765,-0.24804107470231784,0.10277355961890171,0.02768712403343944
87.896,8771,87,895000000,,"['joint1', 'joint2']",0.44045142551891736,-0.2477621995246393,0.09885619577923116,0.027820606857229147
87.906,8772,87,905000000,,"['joint1', 'joint2']",0.44141890412387497,-0.24748752192204826,0.09501323101417793,0.02712424603297396
87.915,8773,87,915000000,,"['joint1', 'joint2']",0.44234744978486695,-0.24722122746235708,0.09107067230535051,0.026205024190374557
87.926,8774,87,926000000,,"['joint1', 'joint2']",0.4432359162745705,-0.2469647070923049,0.08700997539991359,0.025187886539375676
87.936,8775,87,935000000,,"['joint1', 'joint2']",0.4440831752609071,-0.24671873907704978,0.08284244391086816,0.024104010005055215
87.946,8776,87,945000000,,"['joint1', 'joint2']",0.4469291323033646,-0.25220665906217654,0.3759988837813771,-0.7778441994255765
87.957,8777,87,955000000,,"['joint1', 'joint2']",0.4492441936786644,-0.2555610674176094,0.16273046226351437,-0.12668555255756309
87.966,8778,87,965000000,,"['joint1', 'joint2']",0.45057766718569603,-0.2559714177282508,0.11886712350451645,-0.0006778073946403507
87.975,8779,87,975000000,,"['joint1', 'joint2']",0.4516944088915933,-0.25581315591579035,0.10763050386944979,0.023511843105269895
87.986,8780,87,985000000,,"['joint1', 'joint2']",0.4527413408952441,-0.2555488629230913,0.10262780667949421,0.02766462698242117
87.996,8781,87,995000000,,"['joint1', 'joint2']",0.45374576572478276,-0.25527005602148556,0.09869987936675845,0.02782158001501872
88.006,8782,88,5000000,,"['joint1', 'joint2']",0.4547116595317515,-0.2549953499368618,0.09485318843377087,0.02712770353178187
88.016,8783,88,15000000,,"['joint1', 'joint2']",0.45563859514828753,-0.2547290363083228,0.09090873302409062,0.026205907558702418
88.026,8784,88,26000000,,"['joint1', 'joint2']",0.45652543613445307,-0.2544725294273489,0.08684668269169683,0.025185250525915845
88.035,8785,88,35000000,,"['joint1', 'joint2']",0.45737105767872155,-0.25422661050230655,0.08267805697701339,0.024097884979209408
88.046,8786,88,45000000,,"['joint1', 'joint2']",0.4602091902223773,-0.25969672257504595,0.37547521938548145,-0.7768714615535841
88.056,8787,88,55000000,,"['joint1', 'joint2']",0.46252558367522845,-0.26306013412056917,0.16295734551225793,-0.1278351571952143
88.066,8788,88,65000000,,"['joint1', 'joint2']",0.4638600748798689,-0.2634780500090086,0.11887703290549519,-0.0011444893907261583
88.076,8789,88,75000000,,"['joint1', 'joint2']",0.464976222028322,-0.2633223102804214,0.10752989287129557,0.02338533605057612
88.086,8790,88,85000000,,"['joint1', 'joint2']",0.46602190893934115,-0.26305858359905,0.10249075217095155,0.027643816688588174
88.096,8791,88,95000000,,"['joint1', 'joint2']",0.467024893135906,-0.2627798132906305,0.09855224260129992,0.027825697424090953
88.106,8792,88,105000000,,"['joint1', 'joint2']",0.4679892874378915,-0.2625050390949699,0.09470213092341431,0.027134725753448316
88.116,8793,88,115000000,,"['joint1', 'joint2']",0.4689147017376474,-0.262238664233279,0.09075614329295008,0.026210440831341164
88.126,8794,88,125000000,,"['joint1', 'joint2']",0.4698000093115384,-0.2619821280246457,0.08669307562928139,0.0251862582242859
88.136,8795,88,135000000,,"['joint1', 'joint2']",0.47064408848601325,-0.26173621513795364,0.08252363112411625,0.024095379664366895
88.145,8796,88,145000000,,"['joint1', 'joint2']",0.4734745281384596,-0.2671881168831183,0.3749526255841025,-0.775830393186885
88.156,8797,88,155000000,,"['joint1', 'joint2']",0.47579219992342914,-0.27056046164590075,0.1632031372979001,-0.12902434006846952
88.166,8798,88,165000000,,"['joint1', 'joint2']",0.47712788566880615,-0.27098617162835037,0.11890245487472027,-0.0016235340019832706
88.176,8799,88,175000000,,"['joint1', 'joint2']",0.4782435799857989,-0.27083301707755325,0.10744210697012568,0.023256999197956332
88.186,8800,88,185000000,,"['joint1', 'joint2']",0.4792881424383353,-0.2705698451745757,0.10236481060900195,0.027626560533860214
88.196,8801,88,195000000,,"['joint1', 'joint2']",0.48028979716630005,-0.27029107217512216,0.09841521779244632,0.02783472190078294
88.206,8802,88,205000000,,"['joint1', 'joint2']",0.48125279968475354,-0.27001618350566403,0.09456142657288423,0.02714704471829886
88.216,8803,88,215000000,,"['joint1', 'joint2']",0.48217679836275984,-0.2697496999657236,0.09061370463646881,0.026220303140191678
88.226,8804,88,225000000,,"['joint1', 'joint2']",0.4830606764390408,-0.2694930878699706,0.08654936710133783,0.025192565492310012
88.236,8805,88,235000000,,"['joint1', 'joint2']",0.48390331476597126,-0.2692471357491133,0.0823788921719119,0.024098029067184154
88.246,8806,88,246000000,,"['joint1', 'joint2']",0.48672587246029053,-0.274680335452695,0.3744421910552885,-0.7747859960871155
88.256,8807,88,255000000,,"['joint1', 'joint2']",0.48904510273395196,-0.27806176384392955,0.16346667778459506,-0.13022405386848288
88.266,8808,88,265000000,,"['joint1', 'joint2']",0.4903821557390886,-0.2784953932336265,0.11894231921955603,-0.002110443315749444
88.276,8809,88,275000000,,"['joint1', 'joint2']",0.491497524179894,-0.278344865504379,0.10736611171997529,0.023126972743174865
88.286,8810,88,285000000,,"['joint1', 'joint2']",0.4925410658529916,-0.27808223659261166,0.10224882720037386,0.027611502863714832
88.296,8811,88,295000000,,"['joint1', 'joint2']",0.49354148268926057,-0.2778034272863765,0.09828732395810853,0.02784696037143118
88.306,8812,88,305000000,,"['joint1', 'joint2']",0.4945031782151563,-0.27752838550699277,0.09442927665064894,0.02716272018751026
88.315,8813,88,315000000,,"['joint1', 'joint2']",0.4954258406829304,-0.277261754755302,0.09047933311936532,0.02623333827798524
88.328,8814,88,325000000,,"['joint1', 'joint2']",0.49630836350760443,-0.27700502998398857,0.08641331734773929,0.02520170566736847
88.336,8815,88,335000000,,"['joint1', 'joint2']",0.49714963061784445,-0.27675900436218015,0.08224128216027285,0.024103294120468258
88.346,8816,88,345000000,,"['joint1', 'joint2']",0.499964370043096,-0.2821731209234102,0.3738940777827197,-0.7736622563685513
88.356,8817,88,355000000,,"['joint1', 'joint2']",0.5022850972925692,-0.28556356690709706,0.16374493877750368,-0.13145733025950246
88.366,8818,88,366000000,,"['joint1', 'joint2']",0.5036236505328517,-0.28600535797047577,0.1189930135993555,-0.00261131842166705
88.376,8819,88,375000000,,"['joint1', 'joint2']",0.5047387816306363,-0.28585753439319195,0.10729758417061203,0.02299291377158133
88.386,8820,88,385000000,,"['joint1', 'joint2']",0.5057813655288488,-0.28559545872814684,0.10213810238359093,0.027597546706361012
88.396,8821,88,395000000,,"['joint1', 'joint2']",0.5067805921869626,-0.28531659552727096,0.09816361862348315,0.027861624292991355
88.406,8822,88,405000000,,"['joint1', 'joint2']",0.5077410200450663,-0.2850413771573903,0.09430058096504834,0.0271810781266371
88.416,8823,88,415000000,,"['joint1', 'joint2']",0.5086623792389222,-0.28477457582872034,0.09034793681180246,0.026248866329807954
88.426,8824,88,425000000,,"['joint1', 'joint2']",0.5095435737545406,-0.28451771698802375,0.08627947839944114,0.025213257954282545
88.436,8825,88,435000000,,"['joint1', 'joint2']",0.5103834908275324,-0.2842715988441169,0.0821053528673765,0.024110692726730873
88.446,8826,88,445000000,,"['joint1', 'joint2']",0.5131902352444353,-0.28966621944370186,0.3733505352419845,-0.7725204447143289
88.456,8827,88,455000000,,"['joint1', 'joint2']",0.5155125521810664,-0.29306576598804934,0.16403393223977336,-0.13271167092716918
88.466,8828,88,465000000,,"['joint1', 'joint2']",0.5168526893412713,-0.2935159039635069,0.1190494605261763,-0.003124899402336581
88.476,8829,88,475000000,,"['joint1', 'joint2']",0.5179676207271928,-0.29337086339216434,0.10723143557684633,0.022853891441770524
88.486,8830,88,485000000,,"['joint1', 'joint2']",0.519009260484113,-0.29310936406189114,0.10202775197433177,0.02758318696593791
88.496,8831,88,495000000,,"['joint1', 'joint2']",0.5200072962883571,-0.29283044477447007,0.09803927919432519,0.027877142541522806
88.506,8832,88,505000000,,"['joint1', 'joint2']",0.5209664481085117,-0.29255504204033045,0.09417057919321085,0.02720055319396525
88.516,8833,88,515000000,,"['joint1', 'joint2']",0.5218864895984607,-0.2922880620131387,0.09021438501549481,0.026265608336649704
88.526,8834,88,525000000,,"['joint1', 'joint2']",0.5227663366621726,-0.29203106298712456,0.08614330279826103,0.025225646143216665
88.536,8835,88,536000000,,"['joint1', 'joint2']",0.52360487986632,-0.2917848483292502,0.08196658267581404,0.02411877071958997
88.546,8836,88,545000000,,"['joint1', 'joint2']",0.5264033480093095,-0.2971595767673758,0.3728285507871355,-0.7713782663129757
88.556,8837,88,555000000,,"['joint1', 'joint2']",0.5287273680618139,-0.30056833380531245,0.1643290526453477,-0.133984901222063
88.566,8838,88,564000000,,"['joint1', 'joint2']",0.530069128392693,-0.30102700071377164,0.11910744984091266,-0.003652150965667761
88.576,8839,88,575000000,,"['joint1', 'joint2']",0.5311838575297596,-0.30088483488705364,0.10716427207067328,0.022708500035525436
88.586,8840,88,585000000,,"['joint1', 'joint2']",0.5322245281234101,-0.30062394933728154,0.10191446704023215,0.027566394833995977
88.596,8841,88,595000000,,"['joint1', 'joint2']",0.53322133504013,-0.30034498461421233,0.09791115418083353,0.027891549760739306
88.605,8842,88,605000000,,"['joint1', 'joint2']",0.5341791665804143,-0.3000694018379635,0.09403630789976575,0.02721913846539538
88.616,8843,88,615000000,,"['joint1', 'joint2']",0.5350978418951735,-0.29980224660398225,0.09007638750694553,0.02628125168608575
88.626,8844,88,625000000,,"['joint1', 'joint2']",0.5359762896681577,-0.29954511199806344,0.08600232606623896,0.025236778674092658
88.636,8845,88,635000000,,"['joint1', 'joint2']",0.5368134038816423,-0.29929880684387644,0.08182267443845782,0.02412541832070554
88.646,8846,88,645000000,,"['joint1', 'joint2']",0.5396036759648997,-0.30465333629299174,0.372248850823864,-0.7701457068578202
88.656,8847,88,655000000,,"['joint1', 'joint2']",0.5419290732544502,-0.3080712044263567,0.16462334024696348,-0.1352914507501855
88.666,8848,88,665000000,,"['joint1', 'joint2']",0.543272472188125,-0.30853870571814035,0.1191653695077426,-0.004199726015174973
88.676,8849,88,675000000,,"['joint1', 'joint2']",0.5443869751310739,-0.3083995356404561,0.10709345760913122,0.022554965657415202
88.686,8850,88,685000000,,"['joint1', 'joint2']",0.5454266315638554,-0.3081393155935981,0.10179577013402191,0.02754668702952369
88.696,8851,88,695000000,,"['joint1', 'joint2']",0.5464221518531218,-0.3078603243892113,0.09777678745833832,0.027904895602814436
88.706,8852,88,705000000,,"['joint1', 'joint2']",0.5473786005001671,-0.30758457206772327,0.09389545598144108,0.02723708126652756
88.716,8853,88,715000000,,"['joint1', 'joint2']",0.5482958444767032,-0.30731725040516444,0.0899315779931553,0.02629633251179722
88.726,8854,88,724000000,,"['joint1', 'joint2']",0.5491728259930335,-0.3070599893316448,0.08585416601768707,0.025247434068288804
88.736,8855,88,735000000,,"['joint1', 'joint2']",0.550008443392846,-0.3068136041057148,0.08167176618377094,0.024131285698092517
88.746,8856,88,745000000,,"['joint1', 'joint2']",0.5527902008619678,-0.31214756884535166,0.37165611426499373,-0.7688982816014478
88.756,8857,88,755000000,,"['joint1', 'joint2']",0.5551170444170213,-0.31557465016976405,0.16491729724126963,-0.13661614010932288
88.766,8858,88,765000000,,"['joint1', 'joint2']",0.556462089487904,-0.3160511754326416,0.11922197855163011,-0.004762729648387393
88.776,8859,88,775000000,,"['joint1', 'joint2']",0.5575763340138433,-0.31591510468168416,0.10701791930629247,0.02239414835448529
88.786,8860,88,785000000,,"['joint1', 'joint2']",0.5586149252780048,-0.31565559849281843,0.10167116762206889,0.027524068677508923
88.796,8861,88,795000000,,"['joint1', 'joint2']",0.5596090977959776,-0.31537660053939387,0.09763589806200113,0.027917087146642636
88.806,8862,88,805000000,,"['joint1', 'joint2']",0.5605640991126846,-0.3151006900340203,0.09374788948752649,0.0272543077506448
88.815,8863,88,815000000,,"['joint1', 'joint2']",0.5614798461662716,-0.31483321119486707,0.08977996063566707,0.026310826797119047
88.827,8864,88,825000000,,"['joint1', 'joint2']",0.5623552955301037,-0.31457583293784275,0.08569928460777398,0.025257404324219968
88.836,8865,88,835000000,,"['joint1', 'joint2']",0.5631893500733307,-0.31432937732750243,0.0815138270630933,0.024136672477684126
88.846,8866,88,845000000,,"['joint1', 'joint2']",0.5659623324638554,-0.31964241153357786,0.37102353335608007,-0.7676139722348447
88.856,8867,88,855000000,,"['joint1', 'joint2']",0.5682906478210619,-0.3230787998358329,0.16521359855891393,-0.137959221356201
88.865,8868,88,865000000,,"['joint1', 'joint2']",0.5696373421386811,-0.32356453693070275,0.11927769044661428,-0.005341285214056621
88.876,8869,88,875000000,,"['joint1', 'joint2']",0.5707513032654274,-0.3234316716016945,0.10693924068566801,0.02222581159446864
88.886,8870,88,885000000,,"['joint1', 'joint2']",0.5717887864186668,-0.3231729281068363,0.1015418954933247,0.02749820515285023
88.896,8871,88,895000000,,"['joint1', 'joint2']",0.5727815586638307,-0.3228939413475622,0.0974897551822402,0.02792787128132744
88.906,8872,88,905000000,,"['joint1', 'joint2']",0.5737350574966191,-0.3226178814362122,0.09359496935020008,0.027270538975985206
88.916,8873,88,915000000,,"['joint1', 'joint2']",0.5746492520598077,-0.32235025174636256,0.08962299936050093,0.02632442686693595
88.926,8874,88,925000000,,"['joint1', 'joint2']",0.5755231139745725,-0.32209276223506844,0.08553913740941946,0.025266421228731545
88.936,8875,88,935000000,,"['joint1', 'joint2']",0.5763555510387883,-0.32184624261508077,0.0813508047217926,0.02414095264277906
88.946,8876,88,945000000,,"['joint1', 'joint2']",0.5791196756131232,-0.3271380449249328,0.3703873623274102,-0.7662915787952163
88.956,8877,88,955000000,,"['joint1', 'joint2']",0.5814493130697542,-0.33058367706251346,0.16550990706885094,-0.1393255000393495
88.966,8878,88,966000000,,"['joint1', 'joint2']",0.5827976839920694,-0.3310788809873255,0.11933481557833941,-0.0059391883634508785
88.976,8879,88,975000000,,"['joint1', 'joint2']",0.5839113522783999,-0.330949334956677,0.10685880782790587,0.022050218051391138
88.986,8880,88,985000000,,"['joint1', 'joint2']",0.5849476987439326,-0.33069140182428214,0.10140948965347478,0.0274691850391246
88.997,8881,88,994000000,,"['joint1', 'joint2']",0.5859390326113676,-0.3304124416598233,0.09733977984090361,0.027937634569403486
89.006,8882,89,5000000,,"['joint1', 'joint2']",0.5868909878864352,-0.330136236810203,0.09343812704843243,0.02728620931881509
89.016,8883,89,15000000,,"['joint1', 'joint2']",0.5878035885958779,-0.3298684581351017,0.08946227737618331,0.02633747793890094
89.026,8884,89,25000000,,"['joint1', 'joint2']",0.5886758221202806,-0.3296108587690769,0.08537526677187542,0.02527487386124376
89.036,8885,89,35000000,,"['joint1', 'joint2']",0.5895066014393224,-0.32936427685088,0.08118411342014366,0.02414462243132058
89.046,8886,89,45000000,,"['joint1', 'joint2']",0.5922617777845849,-0.33463455496264594,0.3697186199114688,-0.7649189194571533
89.056,8887,89,55000000,,"['joint1', 'joint2']",0.5945926229578067,-0.33808934935798796,0.16580715038622398,-0.14071154004648728
89.066,8888,89,65000000,,"['joint1', 'joint2']",0.595942712266492,-0.3385942671033231,0.11939527702185751,-0.006556717621117661
89.076,8889,89,75000000,,"['joint1', 'joint2']",0.5970560934573017,-0.3384681514476302,0.10677676498133058,0.02186811765245615
89.086,8890,89,85000000,,"['joint1', 'joint2']",0.5980912887727596,-0.33821107156529173,0.10127492928554051,0.027437691855526802
89.096,8891,89,95000000,,"['joint1', 'joint2']",0.599081160497728,-0.3379321502033603,0.09718695972688673,0.02794726140900243
89.106,8892,89,105000000,,"['joint1', 'joint2']",0.6000315447524507,-0.33765580065343137,0.09327828831533946,0.02730229643764595
89.116,8893,89,115000000,,"['joint1', 'joint2']",0.6009425235413239,-0.337387870701912,0.089298387296129,0.026351201305041635
89.126,8894,89,125000000,,"['joint1', 'joint2']",0.6018131005887968,-0.3371301586907336,0.08520818899041963,0.025284053715692922
89.135,8895,89,135000000,,"['joint1', 'joint2']",0.6026421945633977,-0.33688351221193713,0.08101436556742087,0.02414890029876199
89.146,8896,89,145000000,,"['joint1', 'joint2']",0.6053882235814587,-0.3421319156794862,0.3690529508141699,-0.7635233393351333
89.157,8897,89,155000000,,"['joint1', 'joint2']",0.6077203169852989,-0.3455959240714179,0.16610807373696923,-0.14211187770533582
89.165,8898,89,165000000,,"['joint1', 'joint2']",0.6090721630437024,-0.34611072021991873,0.11945874269495248,-0.007189254732386713
89.176,8899,89,175000000,,"['joint1', 'joint2']",0.6101852722654035,-0.34598813617176116,0.10669554900873467,0.021679373214321715
89.186,8900,89,185000000,,"['joint1', 'joint2']",0.6112193123527474,-0.34573194907466753,0.10113916528648029,0.027404134176437153
89.196,8901,89,195000000,,"['joint1', 'joint2']",0.6122077081370847,-0.3454530755056906,0.09703229472233896,0.027957022864665185
89.206,8902,89,205000000,,"['joint1', 'joint2']",0.6131565036017541,-0.34517657885438524,0.09311638716989938,0.027319077574471856
89.216,8903,89,215000000,,"['joint1', 'joint2']",0.6140658414992668,-0.3449084926443877,0.08913225316423133,0.026365825969848947
89.226,8904,89,225000000,,"['joint1', 'joint2']",0.6149347429269314,-0.34465066281108125,0.085038986214499,0.025294055475013594
89.236,8905,89,235000000,,"['joint1', 'joint2']",0.6157621318868864,-0.34440394692160226,0.08084230395019458,0.024154074156435
89.246,8906,89,245000000,,"['joint1', 'joint2']",0.6184988423729632,-0.34963012683060946,0.36838442713000824,-0.762099931556409
89.256,8907,89,255000000,,"['joint1', 'joint2']",0.6208322098133836,-0.35310339560331805,0.1664138465767626,-0.14352666949298531
89.266,8908,89,265000000,,"['joint1', 'joint2']",0.6221858562334575,-0.3536282287325232,0.11952636409785565,-0.007836733828710613
89.276,8909,89,275000000,,"['joint1', 'joint2']",0.6232987160178096,-0.35350927685991795,0.1066154362723793,0.02148394822343773
89.286,8910,89,285000000,,"['joint1', 'joint2']",0.6243316033518855,-0.35325402263340244,0.10100359624819902,0.027368017146865445
89.296,8911,89,295000000,,"['joint1', 'joint2']",0.6253185147237614,-0.35297520512976543,0.09687689268288312,0.02796624254890155
89.306,8912,89,305000000,,"['joint1', 'joint2']",0.6262657083079377,-0.3526985578984547,0.09295352501381862,0.02733580898690241
89.316,8913,89,315000000,,"['joint1', 'joint2']",0.6271733906556731,-0.35243030952847576,0.08896514962390861,0.026380395034499862
89.326,8914,89,326000000,,"['joint1', 'joint2']",0.628040600521456,-0.3521723555013967,0.08486869224238863,0.02530393966148259
89.336,8915,89,335000000,,"['joint1', 'joint2']",0.6288662681197073,-0.3519255646668036,0.0806691739538425,0.024158957752755755
89.346,8916,89,345000000,,"['joint1', 'joint2']",0.6315936395283988,-0.3571292893975748,0.3676774348725246,-0.7606169208844431
89.356,8917,89,355000000,,"['joint1', 'joint2']",0.6339281315044074,-0.3606116198139695,0.16671942385311206,-0.14495724279665084
89.365,8918,89,365000000,,"['joint1', 'joint2']",0.6352836418242909,-0.3611467543357829,0.11959953239580365,-0.008506423441836095
89.376,8919,89,375000000,,"['joint1', 'joint2']",0.6363962802436705,-0.3610315549941632,0.10653623390813545,0.021282451382152887
89.386,8920,89,386000000,,"['joint1', 'joint2']",0.6374280169158482,-0.3607772721662128,0.10086726351596503,0.027329651447799044
89.396,8921,89,395000000,,"['joint1', 'joint2']",0.6384134372395671,-0.3604985224594479,0.09672003316264688,0.027975805798319375
89.406,8922,89,405000000,,"['joint1', 'joint2']",0.6393590160827856,-0.36022172131199337,0.09278880559902339,0.027353655049177583
89.416,8923,89,415000000,,"['joint1', 'joint2']",0.6402650280169544,-0.35995330492684285,0.0887960357737201,0.02639621335225291
89.426,8924,89,425000000,,"['joint1', 'joint2']",0.6411305301517354,-0.3596952206724291,0.08469623409370634,0.02531511617286432
89.436,8925,89,435000000,,"['joint1', 'joint2']",0.6419544592184963,-0.3594483495296448,0.08049375994716211,0.024165083278171615
89.446,8926,89,445000000,,"['joint1', 'joint2']",0.6446722897051194,-0.3646292491645866,0.36697594397863975,-0.759113966596248
89.456,8927,89,455000000,,"['joint1', 'joint2']",0.6470079765692933,-0.36812074959280316,0.1670306933378942,-0.14640033619438902
89.465,8928,89,465000000,,"['joint1', 'joint2']",0.6483653832774348,-0.36866629828356245,0.11967574552666481,-0.009187784863745427
89.476,8929,89,475000000,,"['joint1', 'joint2']",0.6494778225085298,-0.36855495142977546,0.10645851971167454,0.02107339142344676
89.486,8930,89,485000000,,"['joint1', 'joint2']",0.6505084111626713,-0.3683016837991957,0.10073113389357224,0.027288572120131166
89.496,8931,89,495000000,,"['joint1', 'joint2']",0.6514923307356177,-0.3680230120090222,0.0965623134589665,0.02798461469409602
89.506,8932,89,505000000,,"['joint1', 'joint2']",0.652436279886305,-0.3677460550258722,0.09262291824206031,0.027371305553881467
89.516,8933,89,515000000,,"['joint1', 'joint2']",0.6533406041037049,-0.3674774659331854,0.08862558141580056,0.026411889205869482
89.525,8934,89,525000000,,"['joint1', 'joint2']",0.6542043797225672,-0.36721924648390214,0.08452231747293143,0.02532606952585599
89.535,8935,89,535000000,,"['joint1', 'joint2']",0.6550265502110317,-0.3669722907731634,0.08031682969365342,0.02417082800397194
89.546,8936,89,545000000,,"['joint1', 'joint2']",0.657734826454698,-0.37213018673350895,0.3662885100936219,-0.7575656437951985
89.556,8937,89,555000000,,"['joint1', 'joint2']",0.660071535631892,-0.37563059350998174,0.1673406807499082,-0.1478548878860113
89.566,8938,89,565000000,,"['joint1', 'joint2']",0.6614309015960851,-0.37618682587728713,0.11975849484985734,-0.00989504976891016
89.576,8939,89,575000000,,"['joint1', 'joint2']",0.6625431690372574,-0.37607946306577666,0.10638088451315679,0.020858282749027457
89.586,8940,89,585000000,,"['joint1', 'joint2']",0.6635726060147284,-0.3758272495082924,0.10059401512012695,0.027244737010190825
89.596,8941,89,595000000,,"['joint1', 'joint2']",0.6645550138113228,-0.37554867222426314,0.09640288254770624,0.027993054264760134
89.606,8942,89,605000000,,"['joint1', 'joint2']",0.6654973151344556,-0.37527155896978925,0.09245482508656915,0.027389578983225832
89.616,8943,89,615000000,,"['joint1', 'joint2']",0.6663999309982938,-0.37500279349530263,0.08845276794425515,0.026428259075118463
89.626,8944,89,625000000,,"['joint1', 'joint2']",0.6672619580623991,-0.3747444351455842,0.0843458928886759,0.025337735577126957
89.636,8945,89,635000000,,"['joint1', 'joint2']",0.6680823467534491,-0.37449739173134233,0.08013727194950139,0.02417722087312142
89.646,8946,89,645000000,,"['joint1', 'joint2']",0.670780845690012,-0.37963192956715375,0.3655493845336561,-0.7559800443473494
89.656,8947,89,655000000,,"['joint1', 'joint2']",0.6731186570052285,-0.3831413355568465,0.1676548211384744,-0.14932123037232778
89.666,8948,89,665000000,,"['joint1', 'joint2']",0.6744800048058472,-0.3837083603244711,0.11984360068161136,-0.010613136765191267
89.676,8949,89,675000000,,"['joint1', 'joint2']",0.6755921169370476,-0.383605088953642,0.10630414133096897,0.020635109631204837
89.686,8950,89,685000000,,"['joint1', 'joint2']",0.6766203994220055,-0.3833539787970075,0.1004555208907177,0.02719832570360263
89.695,8951,89,695000000,,"['joint1', 'joint2']",0.6776012803283935,-0.3830755100365417,0.09624138304767162,0.028001182344411207
89.706,8952,89,705000000,,"['joint1', 'joint2']",0.6785419131342936,-0.38279824160240317,0.09228428888527591,0.02740830571202499
89.716,8953,89,715000000,,"['joint1', 'joint2']",0.6794427974841968,-0.38252929733096774,0.08827732567915907,0.026445245414396773
89.726,8954,89,726000000,,"['joint1', 'joint2']",0.6803030514200499,-0.38227079730571223,0.08416671432063003,0.025350023953614687
89.736,8955,89,735000000,,"['joint1', 'joint2']",0.6811216326981091,-0.38202366398010934,0.07995484919378443,0.02418418207009601
89.746,8956,89,745000000,,"['joint1', 'joint2']",0.6838102859614619,-0.38713455208751846,0.3647923471859328,-0.7543553755345722
89.756,8957,89,755000000,,"['joint1', 'joint2']",0.6861491114129681,-0.39065293038331816,0.16796885438157638,-0.15080031178847825
89.766,8958,89,765000000,,"['joint1', 'joint2']",0.6875124629142331,-0.39123090725195553,0.11993136644303803,-0.011347398336659154
89.776,8959,89,775000000,,"['joint1', 'joint2']",0.6886244361942726,-0.3911318434249891,0.10622800867311992,0.020403637084094164
89.786,8960,89,785000000,,"['joint1', 'joint2']",0.6896515595909998,-0.3908818871601536,0.10031628642160649,0.02714858484291928
89.796,8961,89,795000000,,"['joint1', 'joint2']",0.6906308974229249,-0.39060354400281394,0.09607815118118015,0.028008243469941366
89.806,8962,89,805000000,,"['joint1', 'joint2']",0.6915698395849326,-0.39032612250627086,0.09211162290344657,0.02742680596993821
89.816,8963,89,815000000,,"['joint1', 'joint2']",0.6924689678510836,-0.3900569976921293,0.08809960246605819,0.02646211149651144
89.826,8964,89,826000000,,"['joint1', 'joint2']",0.6933274228292579,-0.3897983538416758,0.08398514940613803,0.025362162756052464
89.836,8965,89,835000000,,"['joint1', 'joint2']",0.6941441699237636,-0.38955112889749,0.07976996753995708,0.02419089883569396
89.846,8966,89,845000000,,"['joint1', 'joint2']",0.6968228533328951,-0.3946381584201646,0.3640069303638249,-0.7526873089191242
89.856,8967,89,856000000,,"['joint1', 'joint2']",0.6991626319696689,-0.39816534441252927,0.16828328726011174,-0.15228747880980106
89.866,8968,89,865000000,,"['joint1', 'joint2']",0.7005280313896476,-0.3987544737744564,0.12002439414567553,-0.012103128684822828
89.876,8969,89,875000000,,"['joint1', 'joint2']",0.7016398882546442,-0.39865975004291077,0.10615238462796683,0.020164377686068213
89.886,8970,89,885000000,,"['joint1', 'joint2']",0.7026658458153916,-0.39841099331762386,0.10017624765268332,0.027095531982803817
89.896,8971,89,895000000,,"['joint1', 'joint2']",0.7036436250379605,-0.3981327955416294,0.09591328686234923,0.028013961355466077
89.906,8972,89,905000000,,"['joint1', 'joint2']",0.7045808546743952,-0.39785522403322027,0.09193681655877269,0.027445065314358363
89.916,8973,89,915000000,,"['joint1', 'joint2']",0.7054782023240742,-0.3975859168963547,0.0879196213297803,0.026478827701610974
89.926,8974,89,925000000,,"['joint1', 'joint2']",0.7063348327672054,-0.39732712726164454,0.08380123089741472,0.025374123085427372
89.936,8975,89,935000000,,"['joint1', 'joint2']",0.7071497192299603,-0.3970798090247749,0.07958266316473042,0.024197361006551413
89.946,8976,89,945000000,,"['joint1', 'joint2']",0.7098183837766738,-0.4021428000854641,0.3631877263172343,-0.7509653876577351
89.956,8977,89,956000000,,"['joint1', 'joint2']",0.7121589819101128,-0.4056785759494286,0.16859370777941649,-0.15378043251223444
89.966,8978,89,965000000,,"['joint1', 'joint2']",0.7135264666023478,-0.4062790701237802,0.12012180820318923,-0.012881086309394926
89.976,8979,89,975000000,,"['joint1', 'joint2']",0.7146382335907253,-0.4061888304516348,0.10607686959661607,0.019917852845343184
89.986,8980,89,985000000,,"['joint1', 'joint2']",0.7156630185472466,-0.40594131763097696,0.10003437850786993,0.027039819471282117
89.996,8981,89,995000000,,"['joint1', 'joint2']",0.716639225130641,-0.4056632861576839,0.09574619736238817,0.028019030951035667
90.006,8982,90,5000000,,"['joint1', 'joint2']",0.7175747217422117,-0.40538556845157103,0.09175929760329177,0.027464059989970036
90.016,8983,90,15000000,,"['joint1', 'joint2']",0.7184702652503185,-0.4051160768551725,0.08773675000366218,0.02649647027061297
90.026,8984,90,25000000,,"['joint1', 'joint2']",0.719325046766663,-0.40485713927835665,0.08361433879908428,0.025387038473736426
90.036,8985,90,35000000,,"['joint1', 'joint2']",0.7201380473957597,-0.40460972581018595,0.07939230180400256,0.024204774412846047
90.046,8986,90,45000000,,"['joint1', 'joint2']",0.7227965052491028,-0.4096483178438737,0.3624271939398611,-0.7492390700968206
90.056,8987,90,55000000,,"['joint1', 'joint2']",0.7251379808612874,-0.4131928289778104,0.16890894383995161,-0.15528719791999696
90.067,8988,90,65000000,,"['joint1', 'joint2']",0.7265075567743287,-0.4138047501515709,0.12022072730288909,-0.013666482448876291
90.076,8989,90,75000000,,"['joint1', 'joint2']",0.7276192439694311,-0.4137190891149922,0.10600300728269141,0.01966102137178896
90.085,8990,90,85000000,,"['joint1', 'joint2']",0.72864285871779,-0.41347288394162973,0.09989252332919638,0.026980142481690936
90.096,8991,90,95000000,,"['joint1', 'joint2']",0.7296174785569169,-0.41319503517906764,0.09557792471265168,0.028022786993132792
90.106,8992,90,105000000,,"['joint1', 'joint2']",0.7305512229033262,-0.41291717405385775,0.09158019384705116,0.0274823722518584
90.116,8993,90,115000000,,"['joint1', 'joint2']",0.7314449407881547,-0.4126474964307789,0.08755215466928792,0.026513652031133372
90.126,8994,90,125000000,,"['joint1', 'joint2']",0.7322978505718849,-0.4123884082052731,0.08342562828032886,0.025399461416909255
90.136,8995,90,135000000,,"['joint1', 'joint2']",0.7331089418081422,-0.41214089717220936,0.07920006559337081,0.024211595695369598
90.146,8996,90,145000000,,"['joint1', 'joint2']",0.7357571797104949,-0.4171549983276108,0.361565784449362,-0.7474381561305463
90.156,8997,90,155000000,,"['joint1', 'joint2']",0.7380993517857295,-0.4207078814164884,0.16922039423280452,-0.1567938521759823
90.166,8998,90,165000000,,"['joint1', 'joint2']",0.7394710666882345,-0.42133147356274314,0.12032518838174255,-0.014479632981046667
90.176,8999,90,175000000,,"['joint1', 'joint2']",0.7405827140660595,-0.4212505581179036,0.10592993780600915,0.019396714898329337
90.186,9000,90,185000000,,"['joint1', 'joint2']",0.7416051531912364,-0.4210056993849811,0.0997494297003057,0.02691785233653944
90.196,9001,90,195000000,,"['joint1', 'joint2']",0.7425781764338986,-0.42072805635317145,0.09540813914022273,0.02802527713501851
90.206,9002,90,205000000,,"['joint1', 'joint2']",0.7435101521068628,-0.4204500569429186,0.09139895499888404,0.02750114068988181
90.216,9003,90,215000000,,"['joint1', 'joint2']",0.7444020240890996,-0.4201801901899218,0.08736523631193824,0.026531512964159565
90.226,9004,90,225000000,,"['joint1', 'joint2']",0.7452530410873477,-0.41992094848009387,0.08323452839206111,0.02541253179878933
90.236,9005,90,235000000,,"['joint1', 'joint2']",0.7460622010600071,-0.41967333723566735,0.07900535315931402,0.024219064062169338
90.246,9006,90,245000000,,"['joint1', 'joint2']",0.7487000789829699,-0.42466266812552256,0.3607516776317553,-0.7456228352010383
90.256,9007,90,255000000,,"['joint1', 'joint2']",0.7510429446542481,-0.42822393069081066,0.1695302229269109,-0.15830989021766056
90.266,9008,90,266000000,,"['joint1', 'joint2']",0.7524168198063776,-0.42885929078152785,0.12043254378117386,-0.015303777660099077
90.276,9009,90,275000000,,"['joint1', 'joint2']",0.7535284461675085,-0.42878323179125033,0.1058583839223209,0.019122928355762722
90.286,9010,90,285000000,,"['joint1', 'joint2']",0.7545497146205635,-0.4285397802107038,0.09960587391408605,0.02685207189918437
90.296,9011,90,295000000,,"['joint1', 'joint2']",0.7555211313800108,-0.4282623615189305,0.09523704563622724,0.028026820958652943
90.306,9012,90,305000000,,"['joint1', 'joint2']",0.7564513228429179,-0.42798422744735287,0.09121600476490961,0.027519914297815
90.316,9013,90,315000000,,"['joint1', 'joint2']",0.7573413305045378,-0.42771416931882555,0.08717639989842017,0.026549696873760853
90.326,9014,90,325000000,,"['joint1', 'joint2']",0.7581904349758366,-0.4274547707938705,0.08304141508288118,0.025425925797889257
90.336,9015,90,335000000,,"['joint1', 'joint2']",0.7589976431192511,-0.427207056346977,0.07880855121035796,0.024226806403799372
90.346,9016,90,345000000,,"['joint1', 'joint2']",0.7616250738569539,-0.43217140801824794,0.35990265385359477,-0.7437624744474184
90.356,9017,90,355000000,,"['joint1', 'joint2']",0.7639685731902013,-0.4357409226037694,0.16984020152897736,-0.15983117898043073
90.366,9018,90,365000000,,"['joint1', 'joint2']",0.7653446286493084,-0.4363881922543742,0.12054358139820844,-0.016144988379315398
90.376,9019,90,375000000,,"['joint1', 'joint2']",0.7664562620567406,-0.43631712090248875,0.10578808534865392,0.018839866488118515
90.386,9020,90,385000000,,"['joint1', 'joint2']",0.7674763630395853,-0.43607513260804787,0.09946195401121,0.026782876676040082
90.396,9021,90,395000000,,"['joint1', 'joint2']",0.7684461652362815,-0.43579795908003227,0.0950648424783923,0.02802713420876056
90.406,9022,90,405000000,,"['joint1', 'joint2']",0.7693745585513456,-0.43551969509458655,0.0910314475892399,0.02753870227941292
90.416,9023,90,415000000,,"['joint1', 'joint2']",0.7702626844313549,-0.43524944299105783,0.08698573684986309,0.02656823263613435
90.426,9024,90,425000000,,"['joint1', 'joint2']",0.7711098576033173,-0.4349898842045139,0.08284638456488444,0.025439649727769756
90.438,9025,90,435000000,,"['joint1', 'joint2']",0.771915094273214,-0.43474206344461575,0.07860974753634034,0.024234839994081575
90.446,9026,90,445000000,,"['joint1', 'joint2']",0.7742472395668365,-0.4389163847062232,0.396009788796819,-0.8579103645540143
90.456,9027,90,455000000,,"['joint1', 'joint2']",0.7767758418724657,-0.44307594188216903,0.17919483581371984,-0.19013446304304893
90.466,9028,90,465000000,,"['joint1', 'joint2']",0.7781991349984736,-0.4438808682489288,0.12283539631385378,-0.024261265123512052
90.476,9029,90,475000000,,"['joint1', 'joint2']",0.7793212511262277,-0.4438517638487438,0.10618569318200452,0.01670030072342206
90.486,9030,90,485000000,,"['joint1', 'joint2']",0.7803421064640315,-0.4436208263001875,0.09937218221559951,0.026216048598362962
90.496,9031,90,495000000,,"['joint1', 'joint2']",0.781310228307686,-0.4433466064940106,0.09485724760160295,0.02787547352470214
90.506,9032,90,505000000,,"['joint1', 'joint2']",0.7822363899214038,-0.44306912233969165,0.09080185420212247,0.02749977704312241
90.516,9033,90,515000000,,"['joint1', 'joint2']",0.7831222370047133,-0.44279907609736036,0.08676065057799837,0.02655744606976873
90.526,9034,90,525000000,,"['joint1', 'joint2']",0.7839672196232526,-0.4425395838343018,0.08263214392363528,0.025435804841342835
90.536,9035,90,535000000,,"['joint1', 'joint2']",0.7847703821441847,-0.4422917930496011,0.07840749664383269,0.02423293309331563
90.547,9036,90,545000000,,"['joint1', 'joint2']",0.7873766939173299,-0.4472055481577346,0.35816029584881875,-0.7399297876752995
90.556,9037,90,555000000,,"['joint1', 'joint2']",0.7897215336942853,-0.45079132772342057,0.17049191482918818,-0.16289380907732215
90.566,9038,90,565000000,,"['joint1', 'joint2']",0.7911023978898042,-0.4514627477862252,0.12081853524806577,-0.017863956906801814
90.576,9039,90,576000000,,"['joint1', 'joint2']",0.7922146324701203,-0.45140193174890975,0.10570951888772258,0.018255929129716922
90.586,9040,90,585000000,,"['joint1', 'joint2']",0.793233056338682,-0.45116291315954715,0.09924287211352893,0.026649756484293963
90.596,9041,90,595000000,,"['joint1', 'joint2']",0.794200366156014,-0.45088610607511725,0.09479788879789655,0.02804536525519405
90.606,9042,90,605000000,,"['joint1', 'joint2']",0.7951259945017908,-0.4506073661736263,0.09074948708063107,0.02760142250665633
90.616,9043,90,615000000,,"['joint1', 'joint2']",0.7960112828355079,-0.45033644971617015,0.08670099424358055,0.02663537382464712
90.626,9044,90,625000000,,"['joint1', 'joint2']",0.7968556117744754,-0.45007625415410857,0.0825618906270248,0.02550065490700762
90.636,9045,90,635000000,,"['joint1', 'joint2']",0.7976580098940858,-0.44982787267102164,0.0783259659162474,0.02428749108733612
90.646,9046,90,645000000,,"['joint1', 'joint2']",0.8002548104150771,-0.4547156496192297,0.3573798662422599,-0.7379124648579884
90.656,9047,90,656000000,,"['joint1', 'joint2']",0.8026011674091693,-0.4583088430341071,0.17091193992326809,-0.16438397244699154
90.666,9048,90,665000000,,"['joint1', 'joint2']",0.8039852893734611,-0.4589921768095735,0.12103819566020194,-0.018716497944531438
90.676,9049,90,676000000,,"['joint1', 'joint2']",0.8050985496106948,-0.4589363929469652,0.10573519914166102,0.017977715653549456
90.686,9050,90,685000000,,"['joint1', 'joint2']",0.806116677137549,-0.45869869747861003,0.09918015929080655,0.026600151427024585
90.696,9051,90,695000000,,"['joint1', 'joint2']",0.807083125459588,-0.45842191311215696,0.09469651139572403,0.02806925668783275
90.706,9052,90,705000000,,"['joint1', 'joint2']",0.8080076120724753,-0.45814280088042736,0.0906264144665597,0.02764468778133765
90.716,9053,90,715000000,,"['joint1', 'joint2']",0.8088915861243757,-0.4578714523602123,0.0865633427054716,0.026676855931301882
90.726,9054,90,725000000,,"['joint1', 'joint2']",0.8097344702057692,-0.4576108820769704,0.08241197419817835,0.025534572136411554
90.736,9055,90,735000000,,"['joint1', 'joint2']",0.8105353055230271,-0.45736220773762515,0.07816457655115817,0.024312948568959047
90.746,9056,90,745000000,,"['joint1', 'joint2']",0.813121746661654,-0.4622241362799153,0.35650791835790857,-0.735886982381996
90.756,9057,90,755000000,,"['joint1', 'joint2']",0.8154687674062373,-0.4658248667704106,0.17124843482878235,-0.1659050433351116
90.766,9058,90,765000000,,"['joint1', 'joint2']",0.8168554140489981,-0.4665205017108436,0.12118579547404794,-0.019611458422877162
90.776,9059,90,775000000,,"['joint1', 'joint2']",0.8179689822054925,-0.4664701498251169,0.10568768474845044,0.017662625375368293
90.786,9060,90,785000000,,"['joint1', 'joint2']",0.8189860852899615,-0.4662341023760792,0.09904454971337637,0.026520574511324738
90.796,9061,90,795000000,,"['joint1', 'joint2']",0.8199509494075956,-0.4659576197924151,0.09452379742029562,0.02806610888549836
90.806,9062,90,805000000,,"['joint1', 'joint2']",0.8208735836803012,-0.4656783897072634,0.09043324206484255,0.027662973327721746
90.816,9063,90,816000000,,"['joint1', 'joint2']",0.821755549252309,-0.46540684648748964,0.08635736187019952,0.026694726700942015
90.826,9064,90,825000000,,"['joint1', 'joint2']",0.8225963144562911,-0.46514612829844104,0.08219591150664575,0.025545736380205394
90.836,9065,90,835000000,,"['joint1', 'joint2']",0.8233949353018675,-0.46489737928604047,0.07793933455769679,0.02431650943114154
90.845,9066,90,845000000,,"['joint1', 'joint2']",0.8259703633519049,-0.46973359590370567,0.35556287805912545,-0.7338381979158789
